MARKER_ID,SHOP_NAME,SHOP_ADDRESS,LATITUDE,LONGITUDE,OPEN_DATE
VNVC,VNVC EA TAM,"298 LÊ DUẨN, P.BUÔN MA THUỘT, ĐẮK LẮK",12.6606522,108.0312572,2026-04-20
VNVC,VNVC NGUYỄN VĂN LƯỢNG,"162 NGUYỄN VĂN LƯỢNG, P.GÒ VẤP, TPHCM",10.8386785,106.677141,2026-03-30
VNVC,VNVC CỦ CHI 3,"37 TỈNH LỘ 2, ẤP ĐÌNH A, X.CỦ CHI, TP.HCM",10.938658,106.5464738,2026-03-28
VNVC,VNVC BÌNH HÒA,"084A QUỐC LỘ 13, KHU PHỐ ĐÔNG BA, P.BÌNH HÒA, TP.HCM",10.8975558,106.7092745,2026-03-24
VNVC,VNVC BUÔN HỒ,"201 TRẦN HƯNG ĐẠO, P.BUÔN HỒ, ĐẮK LẮK",12.9219187,108.2717562,2026-02-26
VNVC,VNVC GÒ CÔNG 2,"SỐ 163 ĐƯỜNG TRẦN CÔNG TƯỜNG, KHU PHỐ 12A, PHƯỜNG GÒ CÔNG, TỈNH ĐỒNG THÁP (CÁCH TRƯỜNG THPT GÒ CÔNG 150M VỀ HƯỚNG BỆNH VIỆN ĐA KHOA KHU VỰC GÒ CÔNG)",10.3532454,106.6811922,2026-02-12
VNVC,VNVC KRÔNG PẮC,"KM 28, QL.26, X.KRÔNG PẮC, ĐẮK LẮK",12.7149739,108.2831484,2026-02-06
VNVC,VNVC CHƠN THÀNH,"PHẠM HỒNG THÁI, TỔ 6, KHU PHỐ 3, P.CHƠN THÀNH, ĐỒNG NAI",11.4268113,106.6143502,2026-01-24
VNVC,VNVC DƯƠNG MINH CHÂU,"ĐƯỜNG DT781, TỔ 8, ẤP TÂN ĐỊNH, X.DƯƠNG MINH CHÂU, TÂY NINH",11.3734277,106.215547,2026-01-07
VNVC,VNVC ĐẠI PHƯỚC,"A20 LÝ THÁI TỔ, TỔ 1, ẤP BẾN CỘ, X.ĐẠI PHƯỚC, ĐỒNG NAI",10.7410453,106.8097473,2025-12-22
VNVC,VNVC BẾN THỦY,"174 NGUYỄN DU, PHƯỜNG TRƯỜNG VINH, TỈNH NGHỆ AN (ĐỊA CHỈ CŨ: 174 NGUYỄN DU, PHƯỜNG BẾN THỦY, THÀNH PHỐ VINH, NGHỆ AN)",18.6568017,105.6973205,2025-12-04
VNVC,VNVC MỸ XUÂN,"96-98, TỔ 1, KHU PHỐ PHÚ HÀ, P.PHÚ MỸ, TP.HCM",10.6494167,107.0409167,2025-12-04
VNVC,VNVC TÂN BIÊN,"44/3 QUỐC LỘ 1A, KHU PHỐ 20, P.LONG BÌNH, ĐỒNG NAI",10.9696737,106.8964769,2025-11-25
VNVC,VNVC NGHĨA HƯNG,"325 PHẠM VĂN ĐỒNG, TT. LIỄU ĐỀ, NGHĨA HƯNG, NINH BÌNH",20.21807368872908,106.18175478164643,2025-11-15
VNVC,VNVC BÙ ĐĂNG,"QUỐC LỘ 14, KHU ĐỨC LẬP, X.BÙ ĐĂNG, ĐỒNG NAI",11.8091816,107.2316379,2025-10-28
VNVC,VNVC PHƯỚC LONG,"NGUYỄN TẤT THÀNH, P.PHƯỚC BÌNH, ĐỒNG NAI",11.8201329,106.9595716,2025-10-27
VNVC,VNVC VẠN PHÚC,"B-TT04-09, B-TT04-11, B-TT04-11A KHU NHÀ Ở NGÂN HÀ VẠN PHÚC, P.HÀ ĐÔNG, HÀ NỘI",20.9852814,105.7762027,2025-10-22
VNVC,VNVC THE WEST CẦU GIẤY,"TRUNG TÂM THƯƠNG MẠI - DỊCH VỤ, TÒA NHÀ THE WEST, TẦNG 2, P. CẦU GIẤY, HÀ NỘI",21.0345122,105.7945815,2025-10-21
VNVC,VNVC ĐIỆN BIÊN PHỦ,"111 ĐIỆN BIÊN PHỦ, P.GIA ĐỊNH, TP.HCM",10.796608,106.702788,2025-10-17
VNVC,VNVC CẦN ĐƯỚC,"48 QUỐC LỘ 50, X.CẦN ĐƯỚC, TỈNH TÂY NINH",10.510177789622874,106.60093227503808,2025-10-06
VNVC,VNVC TÂN ĐÔNG HIỆP,"169 NGUYỄN THỊ MINH KHAI, P.DĨ AN, TP.HCM",10.9174351,106.7519316,2025-10-01
VNVC,VNVC LÊ TRỌNG TẤN,"C31-BTSL2 Ô SỐ 09 , C31 -BTSL2 Ô SỐ 10, KHU ĐÔ THỊ MỚI HAI BÊN ĐƯỜNG LÊ TRỌNG TẤN, P.DƯƠNG NỘI, HÀ NỘI",20.9826788,105.742345,2025-09-26
VNVC,VNVC THỦY NGUYÊN,"22 PHỐ MỚI, P.THỦY NGUYÊN, TP.HẢI PHÒNG",20.9129426,106.674207,2025-09-21
VNVC,VNVC XA LA,"LK04, LK05, LK06 KHU NHÀ Ở THẤP TẦNG THUỘC DỰ ÁN TRỤ SỞ LÀM VIỆC (CƠ SỞ 2) VÀ CĂN HỘ CHUNG CƯ KẾT HỢP DỊCH VỤ THƯƠNG MẠI TẠI KHU XA LA, P.HÀ ĐÔNG, HÀ NỘI",20.9604371,105.7927203,2025-09-16
VNVC,VNVC CHÂU THÀNH,"52 QUỐC LỘ 61, ẤP HÒA THUẬN, X.BÌNH AN, AN GIANG (ĐỊA CHỈ CŨ: 52 QUỐC LỘ 61, ẤP HÒA THUẬN, X.VĨNH HÒA HIỆP, H.CHÂU THÀNH, KIÊN GIANG)",9.9234639,105.1430684,2025-09-08
VNVC,VNVC ĐAK ĐOA,"326 NGUYỄN HUỆ, XÃ ĐAK ĐOA, TỈNH GIA LAI (ĐỊA CHỈ CŨ: 326 NGUYỄN HUỆ, THỊ TRẤN ĐAK ĐOA, HUYỆN ĐAK ĐOA, TỈNH GIA LAI)",13.9961111,108.1183611,2025-08-25
VNVC,VNVC TÂN KIÊN,"D16/9-D16/9B NGUYỄN CỬU PHÚ, X.TÂN NHỰT, TP.HCM",10.7034949,106.5803963,2025-08-21
VNVC,VNVC XUÂN THỚI THƯỢNG,"39N PHAN VĂN HỚN, ẤP 2, X.BÀ ĐIỂM, TP.HCM",10.851662,106.5851162,2025-08-08
VNVC,VNVC CHÂU ĐỨC,"106A-106B ĐƯỜNG 30/4, TT.NGÃI GIAO, H.CHÂU ĐỨC, BÀ RỊA-VŨNG TÀU",10.65016,107.248615,2025-07-23
VNVC,VNVC XUYÊN MỘC,"TỈNH LỘ 328 XÃ PHƯỚC TÂN, HUYỆN XUYÊN MỘC, TỈNH BÀ RỊA - VŨNG TÀU",10.5411988,107.3956008,2025-07-19
VNVC,VNVC ỨNG HÒA,"61 THANH ẤM, X.VÂN ĐÌNH, HÀ NỘI",20.7282437,105.7716653,2025-07-12
VNVC,VNVC LÁI THIÊU,"9C LÁI THIÊU 45, KHU PHỐ ĐÔNG TƯ, P.LÁI THIÊU, TP.HCM",10.9111696,106.7042124,2025-07-06
VNVC,VNVC LONG ĐẤT,"QL.55, ẤP AN PHƯỚC, X.LONG ĐIỀN, TP.HCM",10.4779428,107.2221266,2025-07-02
VNVC,VNVC BA VÌ,"532 PHỐ NẢ, THÔN VĨNH PHỆ, X.QUẢNG OAI, HÀ NỘI",21.1921181,105.4322954,2025-06-27
VNVC,VNVC PHÚ TÀI,"192-194 LẠC LONG QUÂN, P.QUY NHƠN BẮC, GIA LAI",13.7926462,109.1475839,2025-06-26
VNVC,VNVC TỈNH LỘ 10,"598 TỈNH LỘ 10, KHU PHỐ 16, P.BÌNH TRỊ ĐÔNG, TP.HCM",10.757964,106.6153384,2025-06-20
VNVC,VNVC THỊ XÃ PHÚ THỌ,"243 KDC TÂN LẬP, P.PHÚ THỌ, PHÚ THỌ",21.4025082,105.2067758,2025-06-15
VNVC,VNVC NHÀ BÈ,"1158 LÊ VĂN LƯƠNG, ẤP 69, X.NHÀ BÈ, TP.HCM",10.7047652,106.7033574,2025-05-28
VNVC,VNVC NINH HOÀ,"THỬA ĐẤT SỐ 137, TỜ BẢN ĐỒ SỐ 28, QUỐC LỘ 1A, TỔ DÂN PHỐ PHƯỚC ĐA 3, PHƯỜNG NINH ĐA, THỊ XÃ NINH HÒA, TỈNH KHÁNH HÒA (NGÃ BA NGOÀI QL1A)",12.5017081,109.1383671,2025-05-18
VNVC,VNVC THUẬN GIAO,"1A1/789 ĐƯỜNG 22/12, TỔ 1, KHU PHỐ HÒA LÂN 2, P.THUẬN GIAO, TP.HCM",10.948328,106.7254588,2025-05-14
VNVC,VNVC GIAO THỦY,"371 TRẦN HƯNG ĐẠO, TỔ DÂN PHỐ ĐỒNG THỊNH, X.GIAO THỦY, NINH BÌNH (CÁCH BẾN XE HUYỆN GIAO THỦY 140M VỀ HƯỚNG DỐC NGÔ ĐỒNG)",20.290041,106.4366723,2025-05-09
VNVC,VNVC GÒ ĐEN,"TỜ BẢN ĐỒ SỐ 31, QL.1A, XÃ MỸ YÊN, TÂY NINH-",10.6393718,106.5330795,2025-05-02
VNVC,VNVC SÓC SƠN,"KHU ĐẤU GIÁ ĐẤT, TỔ 1, X.SÓC SƠN, HÀ NỘI",21.2573317,105.8574817,2025-04-01
VNVC,VNVC ĐÔNG THẠNH,"634 ĐẶNG THÚC VỊNH, X.ĐÔNG THẠNH, TP.HCM",10.8956319,106.6225801,2025-03-27
VNVC,VNVC VĨNH LONG 2,"SỐ 25A, ĐINH TIÊN HOÀNG, KHÓM 2, P.TÂN HẠNH, VĨNH LONG",10.2360219,105.9568822,2025-03-11
VNVC,VNVC HÓC MÔN,"338 TÔ KÝ, X.ĐÔNG THẠNH, TP.HCM",10.8809346,106.6088339,2025-02-20
VNVC,VNVC GIA NGHĨA,"SỐ 39 HÙNG VƯƠNG, P.BẮC GIA NGHĨA, LÂM ĐỒNG",11.994944161895779,107.705245144941,2025-02-10
VNVC,VNVC PHÚ TÂN,"THỬA ĐẤT SỐ 826, TỜ BẢN ĐỒ SỐ 34, NGUYỄN THỊ ĐỊNH, P.PHÚ TÂN, VĨNH LONG, (CÁCH TÒA NHÀ 6 SỞ 300M, HƯỚNG VỀ NGÃ TƯ TÚ ĐIỀN)",10.2576881,106.3812231,2025-01-24
VNVC,VNVC TÂN THUẬN,"385 HUỲNH TẤN PHÁT, KHU PHỐ 7, P.TÂN THUẬN, TP.HCM",10.7486518,106.7289061,2025-01-18
VNVC,VNVC BÌNH THỦY,"L8-12, L8-13, L8-14, L8-15, L8-16 LẠC LONG QUÂN, KV 5, P.BÌNH THỦY, TP.CẦN THƠ",10.0772871,105.7422903,2025-01-10
VNVC,VNVC SƠN TRÀ,"909 NGÔ QUYỀN, P.AN HẢI, TP.ĐÀ NẴNG",16.0648409,108.2335812,2024-12-30
VNVC,VNVC Ý YÊN,"TỔ 8, X.Ý YÊN, NINH BÌNH",20.3268957,106.0117168,2024-12-30
VNVC,VNVC LA GI,"307 THỐNG NHẤT, P.LA GI, LÂM ĐỒNG",10.6673896,107.7636508,2024-12-27
VNVC,VNVC BA TRI,"THỬA ĐẤT SỐ 583, 584, 585, 586, 587 CÙNG TỜ BẢN ĐỒ SỐ 02 TẠI KHU PHỐ 2, X.BA TRI, VĨNH LONG (KHU ĐÔ THỊ VIỆT SINH AN BÌNH)",10.0477034,106.5878349,2024-12-18
VNVC,VNVC BÌNH ĐẠI,"SỐ THỬA ĐẤT SỐ 176, 177, CÙNG TỜ BẢN ĐỒ SỐ 20, ĐỒNG KHỞI, KP.3, X.BÌNH ĐẠI, VĨNH LONG",10.1917896,106.6961514,2024-12-12
VNVC,VNVC PHÚ XUÂN (HUẾ 2),"111 LÝ THÁI TỔ, P.HƯƠNG AN, TP.HUẾ",16.4868508,107.5441196,2024-11-26
VNVC,VNVC THẠCH THẤT,"44 ĐƯỜNG 420, THÔN 84, X.THẠCH THẤT, HÀ NỘI",21.0520919,105.5706004,2024-11-26
VNVC,VNVC KHA VẠN CÂN,"1206, KHA VẠN CÂN, P. LINH XUÂN, TP.HCM",10.8609909,106.7610262,2024-11-25
VNVC,VNVC CELADON,"46 ĐƯỜNG CN1, P.TÂY THẠNH, TP.HCM",10.8052542,106.6089496,2024-11-15
VNVC,VNVC CƯ MGAR,"8 HÙNG VƯƠNG, X.QUẢNG PHÚ, ĐẮK LẮK",12.8131462,108.075608,2024-11-06
VNVC,VNVC EA KAR,"26 NGUYỄN TẤT THÀNH, X.EA KAR, ĐẮK LẮK.LÀM VIỆC TỪ THỨ 2 ĐẾN CHỦ NHẬT",12.8086615,108.445571,2024-10-27
VNVC,VNVC NÚI THÀNH,"304 PHẠM VĂN ĐỒNG, X.NÚI THÀNH, TP.ĐÀ NẴNG+ SÁNG 7H30 ĐẾN 11H30. + CHIỀU 13H00 ĐẾN 17H00.",15.4347995,108.6461986,2024-10-21
VNVC,VNVC CÁI RĂNG,"B5, B6 VÕ NGUYÊN GIÁP, KHU DÂN CƯ NÔNG THỔ SẢN, KV.THẠNH LỢI, P.HƯNG PHÚ, TP.CẦN THƠ",10.0064814,105.7966938,2024-10-19
VNVC,VNVC ÁI NGHĨA,"105 HUỲNH NGỌC HUỆ, X.ĐẠI LỘC, TP.ĐÀ NẴNG",15.8854222,108.1109146,2024-10-10
VNVC,VNVC ĐỨC HÒA,"125B TỈNH LỘ 824, KP.2 , X.ĐỨC HOÀ, TÂY NINH (CÁCH CẦU CÁ KHOẢNG 30 MÉT)",10.8133889,106.4500833,2024-10-07
VNVC,VNVC QUẢNG XƯƠNG,"266 TỐ HỮU, X.LƯU VỆ, THANH HÓA.",19.7263333,105.7822778,2024-10-04
VNVC,VNVC NGUYỄN THỊ TÚ,"SỐ 301 NGUYỄN THỊ TÚ, P. BÌNH TÂN, TP.HCM",10.815293,106.5910979,2024-10-03
VNVC,VNVC ĐIỆN BÀN,"84-86 HOÀNG DIỆU, P.ĐIỆN BÀN, TP.ĐÀ NẴNG",15.8866371,108.2505481,2024-09-28
VNVC,VNVC THẮNG NHÌ,"TẦNG 3 TTTM LAPEN CENTER, SỐ 33A ĐƯỜNG 30/4, P. TAM THẮNG, TP.HCM",10.3699167,107.0848889,2024-09-23
VNVC,VNVC BA THÁNG HAI,"232 3 THÁNG 2, P.HÒA HƯNG, TP.HCM",10.7738778,106.677337,2024-09-06
VNVC,VNVC LẠC LONG QUÂN,"TẦNG 3, TÒA NHÀ THƯƠNG MẠI, DỊCH VỤ VÀ VĂN PHÒNG, SỐ 89 ĐƯỜNG LẠC LONG QUÂN, PHƯỜNG NGHĨA ĐÔ, THÀNH PHỐ HÀ NỘI.",21.050527799999998,105.80749999999999,2024-09-06
VNVC,VNVC SUNRISE CITY QUẬN 7,"1.01 KHU CHUNG CƯ KẾT HỢP THƯƠNG MẠI, VĂN PHÒNG SUNRISE CITY - LÔ W, 25 NGUYỄN HỮU THỌ, P. TÂN HƯNG, TP.HCM",10.740835,106.7006655,2024-08-23
VNVC,VNVC SÔNG CẦU,"109 ĐOÀN THỊ ĐIỂM, P.SÔNG CẦU, ĐẮK LẮK",13.4573804,109.2213867,2024-08-21
VNVC,VNVC ĐÀ LẠT,"274 PHÙ ĐỔNG THIÊN VƯƠNG, P.LÂM VIÊN-ĐÀ LẠT, LÂM ĐỒNG",11.9714471,108.4411709,2024-08-21
VNVC,VNVC XUÂN LỘC,"SỐ 78 HÙNG VƯƠNG, KHU PHỐ 8, X.XUÂN LỘC, ĐỒNG NAI",10.9174167,107.4000556,2024-08-15
VNVC,VNVC HÒA BÌNH,"SỐ 414 ĐƯỜNG TRẦN HƯNG ĐẠO, TỔ 8, PHƯỜNG QUỲNH LÂM, THÀNH PHỐ HÒA BÌNH, TỈNH HÒA BÌNH",20.8195497,105.3472471,2024-07-31
VNVC,VNVC TÂN PHÚ 2,"SỐ 476, 476A, 476B, 476C LŨY BÁN BÍCH, P.TÂN PHÚ, TP. HCM",10.7802774,106.6359036,2024-07-04
VNVC,VNVC HỒNG NGỰ,"243 - 245 LÊ HỒNG PHONG, P.HỒNG NGỰ, ĐỒNG THÁP.",10.8106968,105.3523427,2024-07-04
VNVC,VNVC NAM Ô,"28-30 MÊ LINH, P.HẢI VÂN, TP.ĐÀ NẴNG",16.098425,108.1344902,2024-07-01
VNVC,VNVC SA ĐÉC,"13/1 NGUYỄN TẤT THÀNH, KHÓM CÁI SƠN, P.SA ĐÉC, ĐỒNG THÁP",10.2977679,105.7604018,2024-07-01
VNVC,VNVC ĐIỆN BIÊN,"L2-08, TẦNG L2 TRUNG TÂM THƯƠNG MẠI VINCOM PLAZA ĐIỆN BIÊN PHỦ, TỔ DÂN PHỐ 7, P.ĐIỆN BIÊN PHỦ, ĐIỆN BIÊN",21.3874444,103.0159167,2024-06-30
VNVC,VNVC AN KHÊ,"1316 QUANG TRUNG, P.AN KHÊ, GIA LAIGIỜ HOẠT ĐỘNG:- BUỔI SÁNG: 7H30 - 11H30BUỔI CHIỀU: 13H - 17H",13.9520919,108.6588367,2024-06-26
VNVC,VNVC TRẢNG DÀI,"SỐ 241 BÙI TRỌNG NGHĨA, KHU PHỐ 2, P.TRẢNG DÀI, ĐỒNG NAI",10.980316,106.8557693,2024-06-16
VNVC,VNVC ĐÔNG HÀ,"SỐ 151 HÙNG VƯƠNG, P.NAM ĐÔNG HÀ, QUẢNG TRỊ",16.8046978,107.1056179,2024-06-13
VNVC,VNVC HƯƠNG THỦY,"580 NGUYỄN TẤT THÀNH, TỔ 4, P.HƯƠNG THỦY, TP.HUẾ",16.4241657,107.6567931,2024-06-05
VNVC,VNVC CÁT LINH,"TẦNG 2 TOÀ NHÀ DỊCH VỤ THƯƠNG MAI NHS, 214 PHỐ HÀO NAM, P.Ô CHỢ DỪA, HÀ NỘI",21.028674,105.8277839,2024-05-20
VNVC,VNVC LẠNG SƠN,"SỐ 485 BÀ TRIỆU, P.ĐÔNG KINH, LẠNG SƠN",21.8541317,106.7618758,2024-05-20
VNVC,VNVC NGUYỄN VĂN QUÁ,"SỐ 71- 73 NGUYỄN VĂN QUÁ, P.ĐÔNG HƯNG THUẬN, TP.HCM",10.8284973,106.6267283,2024-05-13
VNVC,VNVC CẨM PHẢ,"TỔ 2, KHU SƠN THẠCH, P.QUANG HANH, QUẢNG NINH",21.0097251,107.25134,2024-05-06
VNVC,VNVC THỌ XUÂN,"KIOT 18,19,20 ĐƯỜNG LAM SƠN, KHU ĐÔ THỊ NGÔI SAO, X.THỌ XUÂN, THANH HÓA",19.9355059,105.53605,2024-04-28
VNVC,VNVC QUẢNG NGÃI,"11 MAI ĐÌNH DÕNG, P.CẨM THÀNH, QUẢNG NGÃI",15.1126667,108.8115278,2024-04-27
VNVC,VNVC TUY HÒA,"183 NGUYỄN HUỆ, P.TUY HÒA, ĐẮK LẮK",13.0913268,109.305016,2024-04-26
VNVC,VNVC CHÂU ĐỐC,"60 PHAN ĐÌNH PHÙNG, P.CHÂU ĐỐC, AN GIANG",10.7078366,105.1211727,2024-04-25
VNVC,VNVC HUỲNH TẤN PHÁT,"1189 HUỲNH TẤN PHÁT, P.PHÚ THUẬN, TP.HCM",10.7224205,106.7359406,2024-04-20
VNVC,VNVC GIA KIỆM,"SỐ 13/4, QL.20, ẤP BẠCH LÂM 2, X.THỐNG NHẤT, ĐỒNG NAI",11.0478321,107.1716883,2024-04-19
VNVC,VNVC MỎ CÀY NAM,"38B1 ẤP 7, X.MỎ CÀY, VĨNH LONG",10.1341621,106.3319572,2024-04-08
VNVC,VNVC TRUNG KÍNH,"TẦNG 2, TOÀ NHÀ CHELSEA PARK, 116 TRUNG KÍNH, P.YÊN HOÀ, HÀ NỘI",21.0193889,105.7934444,2024-03-28
VNVC,VNVC QUẬN 8,"TÒA GREEN RIVER, KHỐI C, TẦNG 02, 2225 PHẠM THẾ HIỂN, P.BÌNH ĐÔNG , TP.HCM",10.7331847,106.6437981,2024-03-25
VNVC,VNVC HÒA THÀNH,"SỐ 64 PHẠM VĂN ĐỒNG, KHU PHỐ HIỆP LONG, P.THANH ĐIỀN, TÂY NINH",11.289203,106.1206229,2024-02-25
VNVC,VNVC QUẢNG NGÃI 2,"55-57 HAI BÀ TRƯNG, P.NGHĨA LỘ, QUẢNG NGÃI",15.1328211,108.7959364,2024-02-25
VNVC,VNVC NHƠN TRẠCH,"ĐƯỜNG LÝ THÁI TỔ, TỔ 7, ẤP TRẦU, X.NHƠN TRẠCH, ĐỒNG NAI",10.7579101,106.9374062,2024-02-24
VNVC,VNVC PHAN RANG,"SỐ 35 ĐƯỜNG 21/8, P.PHAN RANG, KHÁNH HÒA",11.5714052,108.9870638,2024-02-19
VNVC,VNVC PHÚC THỌ,"SỐ 124 LẠC TRỊ, X.PHÚC THỌ, HÀ NỘI",21.1044816,105.5452314,2024-02-19
VNVC,VNVC TỪ SƠN,"SỐ 266 TRẦN PHÚ, P.TỪ SƠN, BẮC NINH",21.113298,105.9507942,2024-02-19
VNVC,VNVC AN LẠC,"539A-539B KINH DƯƠNG VƯƠNG, KHU PHỐ 58, P.AN LẠC, TP.HCM",10.7236311,106.6017721,2024-02-15
VNVC,VNVC BỬU LONG,"SỐ 315 HUỲNH VĂN NGHỆ, KHU PHỐ 2, P.TRẤN BIÊN, ĐỒNG NAI",10.9545278,106.7963889,2024-02-06
VNVC,VNVC MỸ THO 3,"304 BIS LÝ THƯỜNG KIỆT, KP.9, P.ĐẠO THẠNH, ĐỒNG THÁP",10.3620637,106.352278,2024-02-05
VNVC,VNVC ĐÔNG HÒA,"TMDV2-04, TẦNG 2, CHUNG CƯ PHÚC ĐẠT CONNECT 2, SỐ 159, QL.1K, P.ĐÔNG HÒA, TP.HCMGIỜ HOẠT ĐỘNG:THỨ 2 ĐẾN THỨ 7: TỪ 7H30 ĐẾN 17H00- CHỦ NHẬT: TỪ 7H00 ĐẾN 17H00",10.8908555,106.7853677,2024-02-05
VNVC,VNVC CỦ CHI 2,"SỐ 830 PHAN VĂN KHẢI, X.TÂN AN HỘI, TP.HCM",10.9696988,106.4843484,2024-01-10
VNVC,VNVC PHÚ GIÁO,"SỐ 534 TỔ 5, KHU PHỐ 2, X.PHÚ GIÁO, TP.HCM",11.2906718,106.7955293,2024-01-10
VNVC,VNVC NGUYỄN TRÃI,"GIAN HÀNG SỐ 101, TẦNG 01, TÒA NHÀ N01B – TRUNG TÂM THƯƠNG MẠI, DỊCH VỤ, NHÀ Ở GOLDEN – LAND BUILDING, 275 NGUYỄN TRÃI, P.KHƯƠNG ĐÌNH, HÀ NỘI",20.9930875,105.80723,2024-01-09
VNVC,VNVC ĐỊNH QUÁN,"KM 116, QL.20, X.PHÚ HÒA, ĐỒNG NAI (ĐỐI DIỆN TRƯỜNG THCS LÝ THƯỜNG KIỆT)",11.2139275,107.3687918,2024-01-09
VNVC,VNVC LONG THẠNH MỸ,"72 NGUYỄN VĂN TĂNG, P.LONG BÌNH, TP.HCM",10.8474015,106.8154641,2024-01-05
VNVC,VNVC BÌNH LONG,"TỔ 4, KHU PHỐ PHÚ XUÂN, P.AN LỘC, ĐỒNG NAI",11.662491,106.6125035,2024-01-01
VNVC,VNVC THANH KHÊ,"369 ĐIỆN BIÊN PHỦ, P.THANH KHÊ, TP.ĐÀ NẴNG",16.0657142,108.1901948,2023-12-29
VNVC,VNVC SÓC TRĂNG,"TTTM SÀI GÒN CO.OP, TẦNG TRỆT, SỐ 6 HÙNG VƯƠNG, P.SÓC TRĂNG, TP.CẦN THƠ",9.612832,105.9695311,2023-12-18
VNVC,VNVC LÊ VĂN THIÊM,"TẦNG 2 TÒA NHÀ STELLAR GARDEN, 35 PHỐ LÊ VĂN THIÊM, P.THANH XUÂN, HÀ NỘI",21.0004134,105.8034322,2023-12-17
VNVC,VNVC PHỐ NHỔN,"TẦNG 2, TÒA A, TÒA NHÀ NTHOME, 109 PHỐ NHỔN, P.XUÂN PHƯƠNG, HÀ NỘI",21.055621,105.7303546,2023-12-14
VNVC,VNVC Ô MÔN,"SỐ 411 TRẦN HƯNG ĐẠO, KV.15, P.Ô MÔN, TP.CẦN THƠ",10.1156538,105.6366478,2023-12-11
VNVC,VNVC BẠC LIÊU,"2 HOÀNG VĂN THỤ, P.BẠC LIÊU, CÀ MAU (NGAY GÓC PHẢI KHÁCH SẠN SÀI GÒN BẠC LIÊU)",9.2846642,105.723588,2023-12-07
VNVC,VNVC BÌNH MINH,"SỐ 79A, TỔ 6, NGUYỄN VĂN THẢNH, KHÓM 2, P.CÁI VỒN, VĨNH LONG",10.0692586,105.8161415,2023-12-02
VNVC,VNVC KIẾN TƯỜNG,"SỐ 176 - 178 - 180 HÙNG VƯƠNG, KP.1, P.KIẾN TƯỜNG, TÂY NINH",10.7791627,105.9305849,2023-11-27
VNVC,VNVC HAI BÀ TRƯNG,"290 HAI BÀ TRƯNG, P.TÂN ĐỊNH, TP.HCM",10.7891585,106.69066,2023-11-13
VNVC,VNVC VIỆT HƯNG,"CĂN HỘ C4 LÔ BT04, ĐÔ THỊ MỚI VIỆT HƯNG, P.VIỆT HƯNG, HÀ NỘI (ĐỐI DIỆN TRƯỜNG THCS ĐÔ THỊ VIỆT HƯNG, CÁCH 30M, CẠNH TRƯỜNG MẦM NON THÁNH GIÓNG CS1)",21.0674145,105.9099752,2023-11-13
VNVC,VNVC NGHI TÀM,"SỐ 175 NGHI TÀM, P.TÂY HỒ, HÀ NỘI (NẰM TRÊN ĐƯỜNG NGHI TÀM, CÁCH HỒ TÂY 700M)",21.0549926,105.8366314,2023-11-11
VNVC,VNVC THỐT NỐT,"545C QL91, KV.LONG THẠNH 2, P.THỐT NỐT, TP.CẦN THƠ",10.280968,105.5243278,2023-11-11
VNVC,VNVC GIA LÂM,"SỐ 187 NGÔ XUÂN QUẢNG, X.GIA LÂM, HÀ NỘI (CÁCH TRỤC ĐƯỜNG QL5 KHOẢNG 500M, CÁCH ĐƯỜNG CỔ BI KHOẢNG 500M)",21.0159865,105.9366533,2023-11-08
VNVC,VNVC PHONG PHÚ,"2134 VĂN TIẾN DŨNG, ẤP 51, X.BÌNH HƯNG, TP.HCM",10.6828354,106.6508173,2023-11-04
VNVC,VNVC CÁI BÈ,"242 TRƯƠNG CÔNG ĐỊNH, TỔ 13, ẤP 2, X.CÁI BÈ, TỈNH ĐỒNG THÁP",10.3316858,106.0317644,2023-11-01
VNVC,VNVC CẨM LỆ,"432-434-436 CÁCH MẠNG THÁNG 8, P.CẨM LỆ, TP.ĐÀ NẴNG",16.0143399,108.1986403,2023-11-01
VNVC,VNVC TÂN HIỆP,"QL1A, KP.TÂN PHÚ, X.CHÂU THÀNH, ĐỒNG THÁP",10.455496,106.3466462,2023-10-30
VNVC,VNVC VĂN GIANG,"SỐ 888 KHU ĐÔ THỊ MỚI VĂN GIANG, X.VĂN GIANG, HƯNG YÊN (NẰM NGAY NGÃ TƯ THỊ TRẤN VĂN GIANG)",20.9465536,105.9414073,2023-10-20
VNVC,VNVC THANH TRÌ,"Ô ĐẤT SỐ 5 BT4 ĐTM PHÁP VÂN- TỨ HIỆP, 6A PHỐ TRẦN THỦ ĐỘ, P.YÊN SỞ, HÀ NỘI (NẰM TRÊN ĐƯỜNG TRẦN THỦ ĐỘ, CÁCH CẦU TỨ HIỆP VỀ PHÍA BẮC 300M, CÁCH MITSUBISHI MOTORS VIỆT HỒNG 300M)",20.9542168,105.8469934,2023-10-13
VNVC,VNVC QUẬN 5,"TẦNG 6, TÒA NHÀ HÙNG VƯƠNG PLAZA, 126 HỒNG BÀNG, P.CHỢ LỚN, TP.HCM",10.7558816,106.662859,2023-09-29
VNVC,VNVC BẾN CÁT,"SỐ 580 QL.13, KHU PHỐ 4, P.BẾN CÁT, TP.HCM",11.1346259,106.6041936,2023-09-24
VNVC,VNVC QUẬN 6,"TẦNG 2, TÒA NHÀ NHẬT ĐỈNH TOWER, 245 NGUYỄN VĂN LUÔNG, P.BÌNH PHÚ, TP.HCM",10.7457034,106.6347421,2023-09-20
VNVC,VNVC HÀ NAM,"TDP MỄ NỘI, ĐƯỜNG LÊ DUẨN, P.PHỦ LÝ, NINH BÌNH (NGÃ TƯ VÀO TRƯỜNG CHUYÊN BIÊN HÒA, CẠNH HYUNDAI HÀ NAM, ĐỐI DIỆN NHÀ HÀNG NGỌC SƠN)",20.5357106,105.9310298,2023-09-18
VNVC,VNVC CỔ NHUẾ,"LÔ SỐ 33, KHU NHÀ Ở THẤP TẦNG TT3, KHU ĐÔ THỊ TP.GIAO LƯU, 232-234 PHẠM VĂN ĐỒNG, P.PHÚ DIỄN, HÀ NỘI (CẠNH NGÃ TƯ VÒNG TRÒN GIAO ĐƯỜNG 23 VÀ ĐƯỜNG SỐ 1, KHU ĐÔ THỊ THÀNH PHỐ GIAO LƯU: CÁCH 50M)",21.0546968,105.7765465,2023-09-14
VNVC,VNVC CẦN GIUỘC,"SỐ 37 NGUYỄN THÁI BÌNH, ẤP TRỊ YÊN, X.CẦN GIUỘC, TÂY NINH",10.6150608,106.665838,2023-09-11
VNVC,VNVC TRẢNG BOM,"Ô 54 - Ô 55- Ô 56, LÔ B KHU DÂN CƯ VÀ SIÊU THỊ, X.TRẢNG BOM, ĐỒNG NAI",10.9564027,107.0038569,2023-08-31
VNVC,VNVC HIỆP BÌNH PHƯỚC,"SỐ 566 QUỐC LỘ 13, KHU PHỐ 6, P.HIỆP BÌNH, TP.HCM. (GẦN CÔNG TY GIÀY GIA ĐỊNH)",10.8474611,106.7183614,2023-08-30
VNVC,VNVC PHẠM HÙNG,"GIAN SỐ L2-04 (TẦNG 2-TTTM SATRA ĐƯỜNG PHẠM HÙNG), C6/27 PHẠM HÙNG, X.BÌNH HƯNG, TP.HCM",10.7336321,106.674541,2023-08-24
VNVC,VNVC PHỐ NỐI,"239-243 NGUYỄN VĂN LINH, P.MỸ HÀO, HƯNG YÊN (MẶT ĐƯỜNG QL5 CŨ, CÁCH NGÃ 4 CHỢ BẦN KHOẢNG 200M)",20.938371,106.043949,2023-08-24
VNVC,VNVC THỚI AN,"109 LÊ THỊ RIÊNG, P.THỚI AN, TP.HCM",10.8707233,106.6542761,2023-08-09
VNVC,VNVC TÂY MỖ,"SỐ NHÀ JA11-02, KHU ĐÔ THỊ THIÊN ĐƯỜNG BẢO SƠN, X.AN KHÁNH, HÀ NỘI (NẰM TRÊN TRỤC ĐƯỜNG LÊ TRỌNG TẤN, CÁCH CỔNG CÔNG VIÊN THIÊN ĐƯỜNG BẢO SƠN 200M TRÊN CÙNG BÊN ĐƯỜNG)",21.0012572,105.732863,2023-08-09
VNVC,VNVC VĂN PHÚ,"TẦNG 1, CHUNG CƯ LA CASTA TOWER, KHU ĐÔ THỊ MỚI VĂN PHÚ, P.KIẾN HƯNG, HÀ NỘI (NẰM TRÊN ĐƯỜNG ĐI VÀO KHU ĐÔ THỊ VĂN PHÚ, NGÃ TƯ LÊ TRỌNG TẤN - QUANG TRUNG - VĂN KHÊ, PHÍA BÊN TAY PHẢI LÀ TÒA NHÀ LA CASTA VĂN PHÚ (ĐỐI DIỆN TÒA NHÀ VĂN PHÚ VICTORIA 300M))",20.9604358,105.7661467,2023-08-05
VNVC,VNVC NGUYỄN DUY TRINH 1,"T1.01 (TẦNG 1) VÀ T2.01 (TẦNG 2) KHỐI 4 (LA.3), TÒA NHÀ LA ASTORIA, 383 NGUYỄN DUY TRINH, P.BÌNH TRƯNG, TP.HCM",10.7884746,106.7679095,2023-08-01
VNVC,VNVC TÂN UYÊN,"THỬA ĐẤT SỐ 429, TỜ BẢN ĐỒ SỐ 51, ĐƯỜNG DT746, TỔ 4, KHU PHỐ 8, P.TÂN UYÊN, TP.HCM",11.0564497,106.7724437,2023-08-01
VNVC,VNVC NGUYỄN DUY TRINH 2,"733-733A NGUYỄN DUY TRINH, P.LONG TRƯỜNG, TP.HCM",10.7906458,106.7819129,2023-07-27
VNVC,VNVC TAM TRINH,"SỐ 156 TAM TRINH, P.HOÀNG MAI, HÀ NỘI (CÙNG TRỤC ĐƯỜNG VỚI ĐẠI SIÊU THỊ METRO 126 TAM TRINH, ĐIỂM MUA SẮM CỦA CƯ DÂN KHU VỰC YÊN SỞ: CÁCH 100M)",20.9679619,105.8673751,2023-07-24
VNVC,VNVC QUẬN 10,"460 ĐƯỜNG 3 THÁNG 2 , P.HÒA HƯNG, TP.HCM",10.7685797,106.6677562,2023-07-12
VNVC,VNVC TRỰC NINH,"SỐ 136 ĐƯỜNG 21B, X.CỔ LỄ, NINH BÌNH (CÁCH CẦU ĐIỆN BIÊN 200M, HƯỚNG ĐI TỪ TP.NAM ĐỊNH XUỐNG HUYỆN HẢI HẬU)",20.3110882,106.2713152,2023-06-18
VNVC,VNVC QUẾ VÕ,"PHỐ MAO DỘC, P.PHƯƠNG LIỄU, BẮC NINH (NẰM TRÊN ĐƯỜNG QL18, ĐỐI DIỆN KHU DÂN CƯ TÂY HỒ)",21.1548895,106.1403876,2023-06-12
VNVC,VNVC THẠNH LỘC,"97 TL19, P.AN PHÚ ĐÔNG, TP.HCM",10.8662817,106.6810364,2023-06-06
VNVC,VNVC LINH ĐÀM,"Ô 08 DÃY B – LÔ TT3, KHU ĐÔ THỊ MỚI TÂY NAM HỒ LINH ĐÀM, P.HOÀNG LIỆT, HÀ NỘI (NẰM TRÊN ĐƯỜNG LINH ĐƯỜNG, CẠNH TRUNG TÂM VĂN HÓA THỂ THAO QUẬN HOÀNG MAI, RẠP CHIẾU PHIM CGV, ĐỐI DIỆN TTVHTT QUẬN 50M)",20.9625742,105.8259151,2023-05-24
VNVC,VNVC KON TUM,"786 PHAN ĐÌNH PHÙNG, P.KON TUM, QUẢNG NGÃI",14.3581245,108.0000582,2023-05-20
VNVC,VNVC PLEIKU,"264 PHAN ĐÌNH PHÙNG, P.DIÊN HỒNG, GIA LAI",13.9809296,107.9926526,2023-04-28
VNVC,VNVC VĨNH LỘC,"331 VÕ VĂN VÂN, X.TÂN VĨNH LỘC, TP.HCM",10.7986629,106.577637,2023-04-21
VNVC,VNVC GÒ CÔNG,"159F QL.50, KP.LONG HƯNG, P.BÌNH XUÂN, ĐỒNG THÁP (GẦN TRỤ SỞ CÔNG AN THỊ XÃ GÒ CÔNG)",10.3595784,106.6562945,2023-04-15
VNVC,VNVC MINH KHAI,"Ô SỐ 1+2, TẦNG 2 TÒA NHÀ HÀN VIỆT, ĐƯỜNG MINH KHAI, P.BẠCH MAI, HÀ NỘI (NGÃ TƯ KIM NGƯU VÀ MINH KHAI, GẦN TÒA NHÀ HINODE CITY (CÁCH 30M))",20.9969827,105.8617452,2023-04-01
VNVC,VNVC NHA TRANG,"L10-01+L10-02, TẦNG 10, TTTM GOLD COAST, 1 TRẦN HƯNG ĐẠO, P.NHA TRANG, KHÁNH HÒA",12.2478344,109.1949664,2023-03-29
VNVC,VNVC HỘI AN,"537 HAI BÀ TRƯNG, P.HỘI AN, TP.ĐÀ NẴNG",15.8828424,108.3249472,2023-03-25
VNVC,VNVC CHỢ GẠO,"SỐ 530 Ô 1, KHU 2, X.CHỢ GẠO, ĐỒNG THÁP (GẦN CẦU CHỢ GẠO 2)",10.3585749,106.4646721,2023-02-25
VNVC,VNVC PHÚ MỸ,"TẦNG TRỆT, TTTM SÀI GÒN CO.OP, QL.51, TỔ 12, KHU PHỐ TÂN PHÚ, P.PHÚ MỸ, TP.HCM",10.5984049,107.0551905,2023-02-14
VNVC,VNVC TRÀ VINH,"TẦNG 01 TTTM GO! TRÀ VINH, VÕ NGUYÊN GIÁP, P.NGUYỆT HÓA, VĨNH LONG",9.9230351,106.3276748,2023-02-10
VNVC,VNVC THƯỜNG TÍN,"SỐ 112 TRẦN LƯ, X.THƯỜNG TÍN, HÀ NỘI (NẰM TRÊN QL1A. CẠNH NGÂN HÀNG AGRIBANK VÀ CÂY XĂNG DẦU SỐ 5, CÁCH NGÃ BA GA THƯỜNG TÍN 200M)",20.8736277,105.8636528,2023-01-17
VNVC,VNVC BÀU BÀNG,"3-4 LÔ A8, ĐƯỜNG NC, KHU PHỐ ĐỒNG SỔ, X.BÀU BÀNG, TP.HCM",11.242873,106.6366399,2023-01-12
VNVC,VNVC TÂN TÚC BÌNH CHÁNH,"SỐ 312 BÙI THANH KHIẾT, ẤP 59, X.TÂN NHỰT, TP.HCM",10.6891621,106.5750416,2023-01-11
VNVC,VNVC HẬU NGHĨA,"SỐ 464 Ô 3, KHU A, X.HẬU NGHĨA, TÂY NINH (CÁCH TRƯỜNG PTTH HẬU NGHĨA 100 MÉT)",10.9071173,106.3878398,2023-01-05
VNVC,VNVC NGÃ BẢY HẬU GIANG,"2035 HÙNG VƯƠNG, KV.III, P.NGÃ BẢY, TP.CẦN THƠ",9.8138962,105.817987,2022-12-31
VNVC,VNVC DƯƠNG NỘI,"TẦNG 1-TÒA NHÀ CT4, THE PRIDE, KHU ĐÔ THỊ MỚI AN HƯNG, P.HÀ ĐÔNG, HÀ NỘI (NẰM TRÊN ĐƯỜNG NGUYỄN THANH BÌNH, ĐỐI DIỆN KHU ĐÔ THỊ THE TERA - AN HƯNG)",20.9717677,105.7570392,2022-12-27
VNVC,VNVC QUẬN 9,"SÀI GÒN VILLAS HILL, 99 ĐƯỜNG LÊ VĂN VIỆT, P.TĂNG NHƠN PHÚ, TP.HCM",10.8448511,106.7929063,2022-12-18
VNVC,VNVC TUYÊN QUANG,"207 BÌNH THUẬN, TỔ 13, P.MINH XUÂN, TUYÊN QUANG (GẦN QUẢNG TRƯỜNG NGUYỄN TẤT THÀNH, TRUNG TÂM CHÍNH CỦA TP. TUYÊN QUANG CÁCH 400M)",21.8190277,105.2144759,2022-12-18
VNVC,VNVC BÌNH TÂN 2,"LẦU 1 SIÊU THỊ SÀI GÒN CO.OP BÌNH TÂN 2, 819 HƯƠNG LỘ 2, P.BÌNH TRỊ ĐÔNG, TP.HCM",10.76491,106.6015266,2022-11-19
VNVC,VNVC ĐAN PHƯỢNG,"TẦNG 3 – TTTM TUẤN QUỲNH, PHỐ THỤY ỨNG, X.ĐAN PHƯỢNG, HÀ NỘI (NẰM TẠI TRUNG TÂM THỊ TRẤN PHÙNG, TỨC SIÊU THỊ LAN CHI CŨ, ĐỐI DIỆN VỚI TƯỢNG ĐÀI TỔ QUỐC GHI CÔNG, CÁCH 30M)",21.0860623,105.6635774,2022-11-17
VNVC,VNVC LIÊN CHIỂU,"SỐ 161 ÂU CƠ, P.LIÊN CHIỂU, TP.ĐÀ NẴNG",16.0710273,108.1431379,2022-11-13
VNVC,VNVC NGŨ HÀNH SƠN ĐÀ NẴNG,"367 LÊ VĂN HIẾN, P.NGŨ HÀNH SƠN, TP.ĐÀ NẴNG",16.0082795,108.2585022,2022-11-13
VNVC,VNVC HẢI HẬU,"SỐ NHÀ 321 TỔ DÂN PHỐ SỐ 3, P.HẢI HẬU, NINH BÌNH (CÁCH BỆNH VIỆN ĐA KHOA HẢI HẬU 500M, HƯỚNG ĐI XUỐNG THỊ TRẤN CỒN HẢI HẬU)",20.1901654,106.2921951,2022-11-01
VNVC,VNVC PHẠM VĂN ĐỒNG,"SỐ 134 PHẠM VĂN ĐỒNG, P.ĐÔNG NGẠC, HÀ NỘI (CẠNH TRƯỜNG ĐH TÀI CHÍNH – NGÂN HÀNG, GẦN NGÃ TƯ TÂN XUÂN)",21.0762792,105.7857686,2022-10-31
VNVC,VNVC AN NHƠN,"330 TRƯỜNG CHINH, P.AN NHƠN ĐÔNG, GIA LAI",13.8978399,109.1089399,2022-10-24
VNVC,VNVC HOÀI NHƠN,"95 TRẦN HƯNG ĐẠO, P. BỒNG SƠN, GIA LAI",14.4319421,109.0140986,2022-10-16
VNVC,VNVC CHÂU Ổ,"SỐ 496 PHẠM VĂN ĐỒNG, X.BÌNH SƠN, QUẢNG NGÃI",15.2941812,108.7621215,2022-09-21
VNVC,VNVC ĐỨC PHỔ,"SỐ 294 NGUYỄN NGHIÊM, P.ĐỨC PHỔ, QUẢNG NGÃI",14.8173016,108.9532737,2022-09-21
VNVC,VNVC HOẰNG HÓA,"SỐ 216, DT510, X.HOẰNG HÓA, THANH HÓA",19.8374152,105.8506711,2022-09-15
VNVC,VNVC XUÂN MAI,"TỔ 2, KHU TÂN XUÂN, X.XUÂN MAI, HÀ NỘI (NẰM TRÊN TRỤC ĐƯỜNG HỒ CHÍ MINH, ĐỐI DIỆN AO SEN TRƯỜNG HỌC VIỆN LÂM NGHIỆP VIỆT NAM, CÁCH CỔNG TRƯỜNG LÂM NGHIỆP KHOẢNG 200M)",20.9096001,105.5777852,2022-09-15
VNVC,VNVC PHỔ YÊN,"SỐ 588 PHẠM VĂN ĐỒNG, P.PHỔ YÊN, THÁI NGUYÊN",21.4200685,105.8695596,2022-09-14
VNVC,VNVC BẢO LỘC,"SIÊU THỊ SÀI GÒN CO.OP BẢO LỘC, THÁP NƯỚC, TRẦN PHÚ, P.2, BẢO LỘC, LÂM ĐỒNG",11.5440527,107.8027819,2022-08-28
VNVC,VNVC GÒ VẤP,"LẦU 2, TTTM CO.OPMART QUANG TRUNG, 304A QUANG TRUNG, P.THÔNG TÂY HỘI, TP.HCM",10.8349116,106.6621977,2022-08-18
VNVC,VNVC CAI LẬY,"414 QL.1, KP.1, P.CAI LẬY, ĐỒNG THÁP",10.4048338,106.1281988,2022-08-16
VNVC,VNVC CAO LÃNH,"SIÊU THỊ SÀI GÒN CO.OP CAO LÃNH, SỐ 01 NGÔ THỜI NHẬM, P.CAO LÃNH, ĐỒNG THÁP",10.4595786,105.6406737,2022-08-15
VNVC,VNVC CỦ CHI,"1239 TỈNH LỘ 8, ẤP THẠNH AN 2, X.BÌNH MỸ, TP.HCM",10.9838831,106.5799733,2022-08-13
VNVC,VNVC DIỄN CHÂU,"SỐ 9, TỔ 1, KHỐI 3, X.DIỄN CHÂU, NGHỆ AN",18.9845891,105.5997542,2022-07-27
VNVC,VNVC THIỆU HÓA,"TIỂU KHU 02, X.THIỆU HOÁ, THANH HOÁ",19.896419,105.6792865,2022-07-27
VNVC,VNVC TRIỆU SƠN,"53 PHỐ GIẮT, X.TRIỆU SƠN, THANH HOÁ",19.8188895,105.606423,2022-07-27
VNVC,VNVC THỦ ĐỨC 2,"2A ĐƯỜNG BÌNH CHIỂU, P.TAM BÌNH , TP.HCM",10.8729461,106.7328887,2022-07-14
VNVC,VNVC ĐÔ LƯƠNG,"XÓM HOA TRƯỜNG, X.ĐÔ LƯƠNG, NGHỆ AN",18.8999747,105.3155584,2022-06-20
VNVC,VNVC THÁI HÒA,"38 LÊ HỒNG PHONG, KHỐI TÂN THÀNH, P.THÁI HÒA, NGHỆ AN",19.32101,105.4351021,2022-06-19
VNVC,VNVC BẾN LỨC,"TẦNG TRỆT SIÊU THỊ CO.OPMART BẾN LỨC, 61 QL.1A, ẤP BẾN LỨC 4, X.BẾN LỨC, TÂY NINH-",10.6379131,106.4826337,2022-05-27
VNVC,VNVC PHAN THIẾT,"M1, M2, M3, M4 TÔN ĐỨC THẮNG, P.HÀM THẮNG, LÂM ĐỒNG",10.9452711,108.1113164,2022-05-10
VNVC,VNVC THUẬN AN,"TẦNG 02, 2F02 & 2F05, KHU ĐÔ THỊ THE SEASONS BÌNH DƯƠNG, P.LÁI THIÊU, TP.HCM",10.9052777,106.7113087,2022-05-07
VNVC,VNVC MỸ THO 2,"545 LÊ VĂN PHẨM, P.ĐẠO THẠNH, ĐỒNG THÁP",10.3590072,106.3408611,2022-05-03
VNVC,VNVC QUẬN 1,"TẦNG 2, TTTM NOWZONE, 235 NGUYỄN VĂN CỪ, P.CẦU ÔNG LÃNH, TP.HCM",10.7641313,106.6825438,2022-04-29
VNVC,VNVC BÀ RỊA,"TẦNG 3 TTTM GO! BÀ RỊA, SỐ 2A NGUYỄN ĐÌNH CHIỂU, P.BÀ RỊA, TP.HCM",10.4925909,107.1683654,2022-04-02
VNVC,VNVC LONG BÌNH TÂN,"TẦNG TRỆT TTTM GO! ĐỒNG NAI, SỐ 833 XA LỘ HÀ NỘI, KHU PHỐ 1, P.LONG HƯNG, ĐỒNG NAI",10.9067633,106.8510194,2022-03-14
VNVC,VNVC THÁI BÌNH,"TẦNG 1 - TTTM GO! THÁI BÌNH, ĐƯỜNG TRẦN THÁI TÔNG, TỔ 1, P.VŨ PHÚC, HƯNG YÊN (NẰM TẦNG 1 TRUNG TÂM THƯƠNG MẠI GO! THÁI BÌNH, CẠNH GIAN HÀNG HIGHLANDS COFFEE)",20.4391707,106.3217359,2022-03-08
VNVC,VNVC HOÀNG MAI,"KHỐI BẮC MỸ, P.HOÀNG MAI, NGHỆ AN",19.2651614,105.7152897,2022-01-26
VNVC,VNVC TÂY NINH,"TẦNG 2, TTC PLAZA TÂY NINH, SỐ 217-219 ĐƯỜNG 30/4, KHU PHỐ 15, P.TÂN NINH, TÂY NINH",11.3126373,106.0957004,2022-01-13
VNVC,VNVC ĐỨC TRỌNG,"T3-01, T3-02 TẦNG 3, TTTM VÀ DV TÀI CHÍNH SACOMBANK (TTC PLAZA ĐỨC TRỌNG), SỐ 713 QL.20, X.ĐỨC TRỌNG, LÂM ĐỒNG",11.727942,108.370906,2021-07-30
VNVC,VNVC BÌNH PHƯỚC,"SỐ 1109 PHÚ RIỀNG ĐỎ, P.BÌNH PHƯỚC, ĐỒNG NAI (ĐỐI DIỆN SIÊU THỊ ĐIỆN MÁY XANH)",11.5359451,106.9012047,2021-06-12
VNVC,VNVC CÀ MAU,"138-140 NGÔ QUYỀN, P.AN XUYÊN, CÀ MAU",9.1832195,105.1413818,2021-06-08
VNVC,VNVC YÊN BÁI,"SỐ 34 NGUYỄN VĂN CỪ, P.YÊN BÁI, LÀO CAI (CÁCH 100M VỚI ĐƯỜNG ĐIỆN BIÊN, TUYẾN ĐƯỜNG CHÍNH CỦA TP. YÊN BÁI)",21.7209359,104.9178283,2021-06-06
VNVC,VNVC ĐỒNG HỚI,"TẦNG 1 (TẦNG TRỆT) TRUNG TÂM MUA SẮM HIẾU HẰNG, SỐ 58A NGUYỄN HỮU CẢNH, P. ĐỒNG HỚI, QUẢNG TRỊ",17.4635446,106.6200331,2021-05-15
VNVC,VNVC VĨNH LONG,"SỐ 170/2 PHẠM HÙNG, P.LONG CHÂU, TỈNH VĨNH LONG",10.2587986,105.952277,2021-05-10
VNVC,VNVC BẾN TRE,"TẦNG 2 TTTM GO! BẾN TRE, KP.1 (THỬA ĐẤT SỐ 558, TỜ BẢN ĐỒ SỐ 16), VÕ NGUYÊN GIÁP, P.SƠN ĐÔNG, VĨNH LONG",10.2542889,106.3604325,2021-04-26
VNVC,VNVC TÂN PHÚ,"TẦNG 1, TOÀ NHÀ ORIENTAL PLAZA, 685 ÂU CƠ, P.TÂN PHÚ, TP.HCM (NGAY TOP MARKET)",10.7893902,106.6396305,2021-04-07
VNVC,VNVC LONG BIÊN,"SỐ 69A1, ĐƯỜNG HOÀNG NHƯ TIẾP, PHƯỜNG BỒ ĐỀ, QUẬN LONG BIÊN, THÀNH PHỐ HÀ NỘI",21.04572145853551,105.87987687103978,2021-01-30
VNVC,VNVC LONG THÀNH,"115B LÊ DUẨN, KHU PHƯỚC HẢI, X.LONG THÀNH, ĐỒNG NAI",10.7926906,106.9466035,2021-01-28
VNVC,VNVC HÀ TĨNH,"158 TRẦN PHÚ, P.THÀNH SEN, HÀ TĨNH",18.3467984,105.8884587,2021-01-27
VNVC,VNVC HẢI PHÒNG,"THỬA ĐẤT SỐ 11, LÔ 30A, KHU ĐÔ THỊ MỚI NGÃ 5 SÂN BAY CÁT BI, LÊ HỒNG PHONG, P.GIA VIÊN, TP.HẢI PHÒNG (CẠNH TÒA NHÀ NGÂN HÀNG BIDV, ĐỐI DIỆN KHO BẠC NHÀ NƯỚC, KHOẢNG 200M)",20.8587184,106.697429,2021-01-06
VNVC,VNVC BÌNH THẠNH,"L1-07,08 TẦNG 01 KHỐI A&C CAO ỐC CHUNG CƯ RICHMOND CITY, 207C NGUYỄN XÍ, P. BÌNH THẠNH, TP.HCM (GẦN CẦU ĐỎ)",10.8163067,106.7060401,2020-12-30
VNVC,VNVC QUẬN 7,"CỬA HÀNG SỐ 0.11A,0.15,0.17 KHU DÂN CƯ ĐA HỢP TẠI LÔ S6-1, KHU A - KHU ĐÔ THỊ MỚI NAM THÀNH PHỐ, 89 NGUYỄN LƯƠNG BẰNG, P.TÂN MỸ, TP.HCM",10.7195933,106.7279216,2020-12-16
VNVC,VNVC HƯNG YÊN,"601 NGUYỄN VĂN LINH, P.PHỐ HIẾN, HƯNG YÊN (NẰM TRÊN TRỤC ĐƯỜNG CHÍNH CỦA THÀNH PHỐ, CÁCH NGÃ TƯ CHỢ GẠO 500M, CÁCH QUẢNG TRƯỜNG TRUNG TÂM THÀNH PHỐ 2KM)",20.6698073,106.0592745,2020-12-02
VNVC,VNVC QUY NHƠN,"07 LÊ DUẨN, P. QUY NHƠN, GIA LAI",13.765576,109.2216784,2020-11-24
VNVC,VNVC LONG KHÁNH,"93-95 NGUYỄN THỊ MINH KHAI, KHU PHỐ 6, P.LONG KHÁNH, ĐỒNG NAI",10.9282637,107.2510978,2020-11-17
VNVC,VNVC SƠN TÂY,"1 LA THÀNH, P.SƠN TÂY, HÀ NỘI (NẰM TRONG KHU CÔNG NGHIỆP PHÚ THỊNH, PHÍA TRƯỚC LÀ QUỐC LỘ 32C)",21.1465663,105.4988662,2020-11-06
VNVC,VNVC TAM KỲ,"01 TRẦN QUÝ CÁP, P.BÀN THẠCH, TP.ĐÀ NẴNG",15.5799326,108.4731368,2020-10-05
VNVC,VNVC NGUYỄN THÁI HỌC,"TẦNG B1 TÒA NHÀ DOJI TOWER, 05 LÊ DUẨN, P.BA ĐÌNH, HÀ NỘI (CÁCH 15M TỪ TÒA NHÀ DOJI, MẶT ĐƯỜNG NGUYỄN THÁI HỌC GẦN PHỐ ĐÌNH NGANG)",21.0285155,105.8420566,2020-08-27
VNVC,VNVC VŨNG TÀU,"TẦNG TRỆT, BLOCK B CHUNG CƯ VŨNG TÀU MELODY, 149 VÕ THỊ SÁU, P. VŨNG TÀU, TP.HCM",10.337746,107.0862517,2020-07-25
VNVC,VNVC THÀNH PHỐ HUẾ,"56 NGÔ QUYỀN, P.THUẬN HÓA, TP.HUẾ (SÁT NGAY CẠNH BÊN TRUNG TÂM TRUYỀN HÌNH VIỆT NAM TẠI HUẾ - VTV8)",16.4630018,107.5901416,2020-07-24
VNVC,VNVC BUÔN MA THUỘT,"7 CHU VĂN AN, P.TÂN AN, ĐẮK LẮK (KHÁCH SẠN MƯỜNG THANH)",12.6942453,108.0629203,2020-07-15
VNVC,VNVC BÌNH TÂN,"175-177-179 VÀNH ĐAI TRONG, P. AN LẠC, TP.HCM",10.7467475,106.6148595,2020-07-08
VNVC,VNVC BẮC GIANG,"TẦNG 1, TÒA NHÀ SUN CITY – SỐ 1B HÙNG VƯƠNG, P.BẮC GIANG, BẮC NINH (KHU VUI CHƠI SUN CITY CŨ, CẠNH NGÂN HÀNG SHB VÀ ĐIỆN MÁY VĂN CHIẾN)",21.2739422,106.2031763,2020-07-01
VNVC,VNVC ĐÔNG ANH,"THÔN ĐẢN MỖ, X.ĐÔNG ANH, HÀ NỘI (CÁCH ĐƯỜNG CAO LỖ, TUYẾN ĐƯỜNG TRỤC TRUNG TÂM HUYỆN KHOẢNG 500M)",21.1498822,105.8464115,2020-06-22
VNVC,VNVC MỸ ĐÌNH,"TẦNG 1, 2 - THÁP R1 TÒA NHÀ FLORENCE, 28 TRẦN HỮU DỰC, P.TỪ LIÊM, HÀ NỘI (NẰM TRÊN MẶT ĐƯỜNG TRẦN HỮU DỰC THUỘC TÒA NHÀ FLORENCE, ĐỐI DIỆN CÁCH CUNG THỂ THAO MỸ ĐÌNH 750 M)",21.0304922,105.761387,2020-06-12
VNVC,VNVC DĨ AN,"CHARM PLAZA, 30 DT743C, KHU PHỐ THỐNG NHẤT, P.DĨ AN, TP.HCM",10.9085556,106.7424732,2020-06-11
VNVC,VNVC THỦ ĐỨC,"TẦNG 2, TTTM MERRY PLAZA MOONLIGHT RESIDENCES, 102 ĐẶNG VĂN BI, P.THỦ ĐỨC, TP.HCM",10.8442293,106.7625239,2020-06-03
VNVC,VNVC TRUNG SƠN BÌNH CHÁNH,"TẦNG 2, CAO ỐC CHUNG CƯ SAIGON MIA, 9A CHUNG CƯ CỤM III,IV - KHU DÂN CƯ TRUNG SƠN, X.BÌNH HƯNG, TP.HCM",10.733100000000002,106.68921259999999,2020-05-31
VNVC,VNVC NINH BÌNH,"2 TÔN ĐỨC THẮNG, P.HOA LƯ, NINH BÌNH",20.2651142,105.9773308,2020-05-30
VNVC,VNVC TÂN AN LONG AN,"SỐ 126 HÙNG VƯƠNG NỐI DÀI, P.LONG AN, TÂY NINH (CẠNH TRUNG TÂM THƯƠNG MẠI VIỆT ẤN)",10.5458303,106.4012261,2020-05-14
VNVC,VNVC VĨNH YÊN,"SỐ 777 NGUYỄN TẤT THÀNH, P.VĨNH YÊN, PHÚ THỌ (NẰM TRÊN 777 NGUYỄN TẤT THÀNH, P.VĨNH YÊN, PHÚ THỌ, CÁCH NGÃ TƯ T50 KHOẢNG 400M)",21.3095575,105.5834899,2020-05-14
VNVC,VNVC THÁI NGUYÊN,"SỐ 38 MINH CẦU KÉO DÀI, P.PHAN ĐÌNH PHÙNG, THÁI NGUYÊN",21.5939684,105.832877,2020-05-07
VNVC,VNVC BẮC NINH,"SỐ 458 NGUYỄN VĂN CỪ, P.VÕ CƯỜNG, BẮC NINH (MẶT ĐƯỜNG NGUYỄN VĂN CỪ, ĐỐI DIỆN PHÒNG CẢNH SÁT GIAO THÔNG TỈNH BẮC NINH, CÁCH VÒNG XUYẾN NGUYỄN VĂN CỪ 250M)",21.1666299,106.044806,2020-04-24
VNVC,VNVC QUẬN 12,"SỐ 8 NGUYỄN THỊ TRÊN, P. TRUNG MỸ TÂY, TP.HCM",10.8480932,106.6140583,2020-04-24
VNVC,VNVC LONG XUYÊN,"SỐ 1/22 TRẦN HƯNG ĐẠO, P.MỸ THỚI, AN GIANG (ĐỐI DIỆN CÔNG VIÊN MỸ THỚI)",10.3557509,105.457792,2020-03-27
VNVC,VNVC MỸ THO,"290 - 292 HÙNG VƯƠNG, P.ĐẠO THẠNH, ĐỒNG THÁP",10.3734065,106.3653404,2020-03-21
VNVC,VNVC RẠCH GIÁ,"LÔ P1 - 17, 18 ĐƯỜNG 3/2, KHU ĐÔ THỊ MỚI PHÚ CƯỜNG, P.RẠCH GIÁ, AN GIANG",9.9744799,105.095619,2020-03-17
VNVC,VNVC NAM ĐỊNH,"124 ĐÔNG A, P.NAM ĐỊNH, NINH BÌNH (NẰM TRONG KHU ĐÔ THỊ HÒA VƯỢNG, CÁCH BỆNH VIỆN ĐA KHOA SÀI GÒN 200M, CÁCH VÒNG XUYẾN BIGC (TTTM GO!) 100M)",20.4373924,106.155518,2020-01-14
VNVC,VNVC CẦN THƠ,"SỐ 576-576A ĐƯỜNG 30/4, P.TÂN AN, TP.CẦN THƠ",10.0159698,105.7640436,2019-11-21
VNVC,VNVC PHÚ THỌ,"LÔ CC17, QUẢNG TRƯỜNG HÙNG VƯƠNG, P.VIỆT TRÌ, PHÚ THỌ (SÁT QUẢNG TRƯỜNG HÙNG VƯƠNG THÀNH PHỐ VIỆT TRÌ, TRONG TÒA NHÀ KHÁCH SẠN MƯỜNG THANH: CÁCH 20M)",21.3144034,105.3924864,2019-10-02
VNVC,VNVC THANH HÓA,"8A BÙI KHẮC NHẤT, KHU DÂN CƯ AN PHÚ HƯNG, P.HẠC THÀNH, THANH HÓA(PHÍA SAU TÒA NHÀ VIETTEL)",19.8040723,105.79141,2019-07-08
VNVC,VNVC HẠ LONG,"TẦNG 1, CHUNG CƯ LIDECO HẠ LONG, TRẦN HƯNG ĐẠO, P.HỒNG GAI, QUẢNG NINH (MẶT ĐƯỜNG TRẦN HƯNG ĐẠO, ĐỐI DIỆN TRƯỜNG TIỂU HỌC TRẦN HƯNG ĐẠO, GẦN CHỢ HẠ LONG 2 CÁCH NGÃ TƯ LOONG TOÒNG 450M)",20.9554366,107.0852301,2019-05-28
VNVC,VNVC ĐÀ NẴNG,"LÔ 02,03-A4.3 KHU CÔNG VIÊN BẮC TƯỢNG ĐÀI, P.HÒA CƯỜNG, TP.ĐÀ NẴNG (ĐẦU ĐƯỜNG VÀO ĐẢO XANH, CHÂN CẦU TRẦN THỊ LÝ)",16.0487085,108.2253732,2019-05-15
VNVC,VNVC THÀNH PHỐ VINH,"17B MAI HẮC ĐẾ, P.VINH HƯNG, NGHỆ AN",18.6958387,105.6746932,2019-05-11
VNVC,VNVC HÀ ĐÔNG,"TẦNG 3, TÒA NHÀ NEW SKYLINE, KHU ĐÔ THỊ MỚI VĂN QUÁN - YÊN PHÚC, P.HÀ ĐÔNG, HÀ NỘI",20.9763774,105.7894287,2019-04-12
VNVC,VNVC LÊ ĐẠI HÀNH,"TẦNG 2, TTTM FLEMINGTON, CAO ỐC BẢO GIA, 184 LÊ ĐẠI HÀNH, P.PHÚ THỌ, TP.HCM",10.764909,106.6556152,2018-10-31
VNVC,"VNVC CÔNG VIÊN THANH LỄ, BÌNH DƯƠNG","567 ĐẠI LỘ BÌNH DƯƠNG, P.THỦ DẦU MỘT, TP.HCM",10.9895983,106.6587761,2018-10-31
VNVC,VNVC CANTAVIL AN PHÚ,"TẦNG 2, KHU PHỨC HỢP CANTAVIL AN PHÚ, 1 SONG HÀNH VÕ NGUYÊN GIÁP, P.BÌNH TRƯNG, TP.HCM",10.8015827,106.7469648,2018-07-28
VNVC,VNVC ĐỒNG NAI,"22 ĐOÀN VĂN CỰ, KHU PHỐ 9, P.TAM HIỆP, ĐỒNG NAI (CẠNH UBND PHƯỜNG)",10.9467988,106.8580022,2018-07-24
VNVC,VNVC ICON 4 CẦU GIẤY,"TÒA NHÀ ICON 4, SỐ 243A ĐÊ LA THÀNH, P.LÁNG, HÀ NỘI (TÒA NHÀ ICON4 CẦU GIẤY, CẠNH TRƯỜNG ĐẠI HỌC GIAO THÔNG VẬN TẢI, MẶT ĐƯỜNG HUỲNH THÚC KHÁNG KÉO DÀI, GẦN ĐẠI SỨ QUÁN NGA)",21.0278773,105.8044545,2018-06-25
VNVC,VNVC HOÀNG VĂN THỤ,"198 HOÀNG VĂN THỤ, P.ĐỨC NHUẬN, TP.HCM",10.8002471,106.6726532,2017-12-01
VNVC,VNVC TRƯỜNG CHINH,"180 TRƯỜNG CHINH, P.KIM LIÊN, HÀ NỘI (GẦN ĐỐI DIỆN BẢO TÀNG PHÒNG KHÔNG - KHÔNG QUÂN (CÁCH 200M))",21.0002016,105.8320587,2017-06-29
