MARKER_ID, SHOP_NAME , SHOP_ADDRESS ,LAT,LONG,OPEN_DATE
VNVC,VNVC CHÂU ĐỨC,"106A-106B ĐƯỜNG 30/4, TT.NGÃI GIAO, H.CHÂU ĐỨC, BÀ RỊA-VŨNG TÀU",10.6499974,107.2450681,2025-07-23 00:00:00.000
VNVC,VNVC XUYÊN MỘC,"TỈNH LỘ 328 XÃ PHƯỚC TÂN, HUYỆN XUYÊN MỘC, TỈNH BÀ RỊA - VŨNG TÀU",10.5412001,107.3956003,2025-07-19 00:00:00.000
VNVC,VNVC ỨNG HÒA,"SỐ 61 THANH ẤM, THỊ TRẤN VÂN ĐÌNH, HUYỆN ỨNG HOÀ, THÀNH PHỐ HÀ NỘI, VIỆT NAM",20.7282437,105.7716653,2025-07-12 00:00:00.000
VNVC,VNVC LÁI THIÊU,"SỐ 9C ĐƯỜNG LÁI THIÊU 45, KHU PHỐ ĐÔNG TƯ, PHƯỜNG LÁI THIÊU, THÀNH PHỐ THUẬN AN, TỈNH BÌNH DƯƠNG",10.9111696,106.7042124,2025-07-06 00:00:00.000
VNVC,VNVC LONG ĐẤT,"QUỐC LỘ 55, ẤP AN PHƯỚC, XÃ TAM AN, HUYỆN LONG ĐẤT, TỈNH BÀ RỊA - VŨNG TÀU",10.47790362,107.2224136,2025-07-02 00:00:00.000
VNVC,VNVC BA VÌ,"SỐ 532 PHỐ NẢ, THÔN VĨNH PHỆ, XÃ CHU MINH, HUYỆN BA VÌ, THÀNH PHỐ HÀ NỘI",21.1921181,105.4322954,2025-06-27 00:00:00.000
VNVC,VNVC PHÚ TÀI,"192 - 194 LẠC LONG QUÂN, PHƯỜNG TRẦN QUANG DIỆU, THÀNH PHỐ QUY NHƠN, TỈNH BÌNH ĐỊNH",13.79239796,109.1476698,2025-06-26 00:00:00.000
VNVC,VNVC TỈNH LỘ 10,"598 TỈNH LỘ 10, KP16, PHƯỜNG BÌNH TRỊ ĐÔNG, QUẬN BÌNH TÂN, TP.HCM",10.757964,106.6153384,2025-06-20 00:00:00.000
VNVC,VNVC THỊ XÃ PHÚ THỌ,"SỐ 243 KDC TÂN LẬP, PHƯỜNG HÙNG VƯƠNG, THỊ XÃ PHÚ THỌ, TỈNH PHÚ THỌ",21.402479,105.206752,2025-06-15 00:00:00.000
VNVC,VNVC NHÀ BÈ,"1158 LÊ VĂN LƯƠNG, XÃ PHƯỚC KIỂN, HUYỆN NHÀ BÈ, TPHCM, VIỆT NAM",10.7047807,106.7034279,2025-05-28 00:00:00.000
VNVC,VNVC NINH HOÀ,"THỬA ĐẤT SỐ 137, TỜ BẢN ĐỒ SỐ 28, QUỐC LỘ 1A, TỔ DÂN PHỐ PHƯỚC ĐA 3, PHƯỜNG NINH ĐA, THỊ XÃ NINH HÒA, TỈNH KHÁNH HÒA (NGÃ BA NGOÀI QL1A)",12.50165904,109.1380232,2025-05-18 00:00:00.000
VNVC,VNVC THUẬN GIAO,"SỐ 1A1/789, ĐƯỜNG 22 THÁNG 12, TỔ 1, KHU PHỐ HÒA LÂN 2, PHƯỜNG THUẬN GIAO, THÀNH PHỐ THUẬN AN, TỈNH BÌNH DƯƠNG",10.9487182,106.7253994,2025-05-14 00:00:00.000
VNVC,VNVC GIAO THỦY,"SỐ 371, ĐƯỜNG TRẦN HƯNG ĐẠO, TỔ DÂN PHỐ ĐỒNG THỊNH, THỊ TRẤN GIAO THỦY, HUYỆN GIAO THỦY, TỈNH NAM ĐỊNH, VIỆT NAM (CÁCH BẾN XE HUYỆN GIAO THỦY 140M VỀ HƯỚNG DỐC NGÔ ĐỒNG)",20.26417045,106.4006432,2025-05-09 00:00:00.000
VNVC,VNVC GÒ ĐEN,"THỬA ĐẤT SỐ 156, TỜ BẢN ĐỒ SỐ 31, ĐƯỜNG QUỐC LỘ 1A, XÃ PHƯỚC LỢI, HUYỆN BẾN LỨC, TỈNH LONG AN- ",10.6394837,106.5331541,2025-05-02 00:00:00.000
VNVC,VNVC SÓC SƠN,"KHU ĐẤU GIÁ, TỔ 1, THỊ TRẤN SÓC SƠN, HUYỆN SÓC SƠN, THÀNH PHỐ HÀ NỘI, VIỆT NAM",21.2573317,105.8574817,2025-04-01 00:00:00.000
VNVC,VNVC ĐÔNG THẠNH,"634 ĐƯỜNG ĐẶNG THÚC VỊNH, ẤP 6, XÃ ĐÔNG THẠNH, HUYỆN HÓC MÔN, TP. HCM",10.8956319,106.6225801,2025-03-27 00:00:00.000
VNVC,VNVC VĨNH LONG 2,"SỐ 25A ĐƯỜNG ĐINH TIÊN HOÀNG, KHÓM 2, PHƯỜNG 8, THÀNH PHỐ VĨNH LONG, TỈNH VĨNH LONG",10.2360219,105.9568822,2025-03-11 00:00:00.000
VNVC,VNVC GIA NGHĨA,"SỐ 39 HÙNG VƯƠNG, TỔ DÂN PHỐ 3, PHƯỜNG NGHĨA ĐỨC, THÀNH PHỐ GIA NGHĨA, TỈNH ĐẮK NÔNG",11.99494416,107.7052451,2025-02-10 00:00:00.000
VNVC,VNVC PHÚ TÂN,"ĐƯỜNG NGUYỄN THỊ ĐỊNH, PHƯỜNG PHÚ TÂN, THÀNH PHỐ BẾN TRE, TỈNH BẾN TRE, (CÁCH TÒA NHÀ 6 SỞ 300M, HƯỚNG VỀ NGÃ TƯ TÚ ĐIỀN)",10.2576523,106.3812278,2025-01-24 00:00:00.000
VNVC,VNVC TÂN THUẬN,"385 HUỲNH TẤN PHÁT, KHU PHỐ 2, PHƯỜNG TÂN THUẬN ĐÔNG, QUẬN 7, TP. HỒ CHÍ MINH",10.7485833,106.7289167,2025-01-18 00:00:00.000
VNVC,VNVC BÌNH THỦY,"L8: 12 - 16 ĐƯỜNG LẠC LONG QUÂN, KHU VỰC 5, PHƯỜNG BÌNH THỦY, QUẬN BÌNH THỦY, THÀNH PHỐ CẦN THƠ",10.0772624,105.7422082,2025-01-10 00:00:00.000
VNVC,VNVC SƠN TRÀ,"909 ĐƯỜNG NGÔ QUYỀN, PHƯỜNG AN HẢI BẮC, QUẬN SƠN TRÀ, THÀNH PHỐ ĐÀ NẴNG",16.0648409,108.2335812,2024-12-30 00:00:00.000
VNVC,VNVC Ý YÊN,"TỔ 8, THỊ TRẤN LÂM, HUYỆN Ý YÊN, TỈNH NAM ĐỊNH, VIỆT NAM  ",20.32710998,106.0090797,2024-12-30 00:00:00.000
VNVC,VNVC LA GI,"307 ĐƯỜNG THỐNG NHẤT, PHƯỜNG TÂN THIỆN, THỊ XÃ LA GI, TỈNH BÌNH THUẬN",10.66743834,107.7646155,2024-12-27 00:00:00.000
VNVC,VNVC BA TRI,"91 – 93 ĐƯỜNG ĐÔNG TÂY, KHU PHỐ 2, THỊ TRẤN BA TRI, HUYỆN BA TRI, TỈNH BẾN TRE (KHU ĐÔ THỊ VIỆT SINH AN BÌNH)",10.0476546,106.5878695,2024-12-18 00:00:00.000
VNVC,VNVC BÌNH ĐẠI,"SỐ 20, KHU PHỐ 3, THỊ TRẤN BÌNH ĐẠI, HUYỆN BÌNH ĐẠI, TỈNH BẾN TRE",10.1917896,106.6961514,2024-12-12 00:00:00.000
VNVC,VNVC PHÚ XUÂN (HUẾ 2),"111 LÝ THÁI TỔ, PHƯỜNG AN HÒA, QUẬN PHÚ XUÂN, THÀNH PHỐ HUẾ",16.4868508,107.5441196,2024-11-26 00:00:00.000
VNVC,VNVC THẠCH THẤT,"THÔN 84, XÃ KIM QUAN, HUYỆN THẠCH THẤT, THÀNH PHỐ HÀ NỘI, VIỆT NAM  ",21.0516159,105.5703779,2024-11-26 00:00:00.000
VNVC,VNVC KHA VẠN CÂN,"1206 KHA VẠN CÂN, PHƯỜNG LINH TRUNG, THÀNH PHỐ THỦ ĐỨC, TP. HỒ CHÍ MINH",10.8609909,106.7610262,2024-11-25 00:00:00.000
VNVC,VNVC CELADON,"46 ĐƯỜNG CN1, PHƯỜNG SƠN KỲ, QUẬN TÂN PHÚ , TP. HỒ CHÍ MINH",10.8052542,106.6089496,2024-11-15 00:00:00.000
VNVC,VNVC CƯ M’GAR,"08 HÙNG VƯƠNG, THỊ TRẤN QUẢNG PHÚ, HUYỆN CƯ M'GAR, TỈNH ĐẮK LẮK.",12.8131462,108.075608,2024-11-06 00:00:00.000
VNVC,VNVC EA KAR,"26 NGUYỄN TẤT THÀNH, THỊ TRẤN EA KAR, HUYỆN EA KAR, TỈNH ĐĂK LĂK.LÀM VIỆC TỪ THỨ 2 ĐẾN CHỦ NHẬT ",12.8086353,108.4454871,2024-10-27 00:00:00.000
VNVC,VNVC NÚI THÀNH,"304 PHẠM VĂN ĐỒNG, THỊ TRẤN NÚI THÀNH, HUYỆN NÚI THÀNH, TỈNH QUẢNG NAM+ SÁNG 7H30 ĐẾN 11H30. + CHIỀU 13H00 ĐẾN 17H00.",15.4346715,108.6462803,2024-10-21 00:00:00.000
VNVC,VNVC CÁI RĂNG,"B5, B6 ĐƯỜNG VÕ NGUYÊN GIÁP, KHU DÂN CƯ NÔNG THỔ SẢN, KHU VỰC THẠNH LỢI, PHƯỜNG PHÚ THỨ, QUẬN CÁI RĂNG, THÀNH PHỐ CẦN THƠ",10.0064814,105.7966938,2024-10-19 00:00:00.000
VNVC,VNVC ÁI NGHĨA,"105 HUỲNH NGỌC HUỆ, THỊ TRẤN ÁI NGHĨA, HUYỆN ĐẠI LỘC, TỈNH QUẢNG NAM",15.8853456,108.1109254,2024-10-10 00:00:00.000
VNVC,VNVC ĐỨC HÒA,"125B, TỈNH LỘ 824, KHU VỰC 2, THỊ TRẤN ĐỨC HÒA, HUYỆN ĐỨC HÒA, TỈNH LONG AN (CÁCH CẦU CÁ KHOẢNG 30 MÉT)",10.81338759,106.4475055,2024-10-07 00:00:00.000
VNVC,VNVC QUẢNG XƯƠNG,"266 ĐƯỜNG TỐ HỮU, THỊ TRẤN TÂN PHONG, HUYỆN QUẢNG XƯƠNG, TỈNH THANH HÓA. ",19.726334,105.782278,2024-10-04 00:00:00.000
VNVC,VNVC NGUYỄN THỊ TÚ,"SỐ 301 NGUYỄN THỊ TÚ, PHƯỜNG BÌNH HƯNG HÒA B, QUẬN BÌNH TÂN, TP.HCM",10.815293,106.5910979,2024-10-03 00:00:00.000
VNVC,VNVC ĐIỆN BÀN,"84 - 86 HOÀNG DIỆU, PHƯỜNG VĨNH ĐIỆN, THỊ XÃ ĐIỆN BÀN, TỈNH QUẢNG NAM",15.8866371,108.2505481,2024-09-28 00:00:00.000
VNVC,VNVC THẮNG NHÌ,"TẦNG 3, TTTM LAPEN CENTER - 33A ĐƯỜNG 30/4, PHƯỜNG 9, TP. VŨNG TÀU, TỈNH BÀ RỊA VŨNG TÀU",10.37214893,107.082474,2024-09-23 00:00:00.000
VNVC,VNVC BA THÁNG HAI,"232 ĐƯỜNG 3 THÁNG 2, PHƯỜNG 12, QUẬN 10, TP.HCM",10.773862,106.677474,2024-09-06 00:00:00.000
VNVC,VNVC SUNRISE CITY QUẬN 7,"1.01 KHU CHUNG CƯ KẾT HỢP THƯƠNG MẠI, VĂN PHÒNG SUNRISE CITY - LÔ W, SỐ 25 NGUYỄN HỮU THỌ, PHƯỜNG TÂN HƯNG, QUẬN 7, TP.HCM",10.7419811,106.7008897,2024-08-23 00:00:00.000
VNVC,VNVC SÔNG CẦU,"109 ĐOÀN THỊ ĐIỂM, PHƯỜNG XUÂN YÊN, THỊ XÃ SÔNG CẦU, TỈNH PHÚ YÊN",13.45740191,109.2213982,2024-08-21 00:00:00.000
VNVC,VNVC ĐÀ LẠT,"274 PHÙ ĐỔNG THIÊN VƯƠNG, PHƯỜNG 8, THÀNH PHỐ ĐÀ LẠT, TỈNH LÂM ĐỒNG",11.9714471,108.4411709,2024-08-21 00:00:00.000
VNVC,VNVC XUÂN LỘC,"SỐ 78 ĐƯỜNG HÙNG VƯƠNG, KHU PHỐ 8, THỊ TRẤN GIA RAY, HUYỆN XUÂN LỘC, ĐỒNG NAI",10.91808788,107.3993803,2024-08-15 00:00:00.000
VNVC,VNVC HÒA BÌNH,"SỐ 414 ĐƯỜNG TRẦN HƯNG ĐẠO, TỔ 8, PHƯỜNG QUỲNH LÂM, THÀNH PHỐ HÒA BÌNH, TỈNH HÒA BÌNH ",20.8195497,105.2710294,2024-07-31 00:00:00.000
VNVC,VNVC HỒNG NGỰ,"243 - 245 ĐƯỜNG LÊ HỒNG PHONG, PHƯỜNG AN THẠNH, THÀNH PHỐ HỒNG NGỰ, TỈNH ĐỒNG THÁP.",10.8105659,105.353208,2024-07-04 00:00:00.000
VNVC,VNVC TÂN PHÚ 2,"SỐ 476 LŨY BÁN BÍCH, PHƯỜNG HÒA THẠNH, QUẬN TÂN PHÚ, TP. HCM",10.7802774,106.6359036,2024-07-03 00:00:00.000
VNVC,VNVC SA ĐÉC,"13/1 ĐƯỜNG NGUYỄN TẤT THÀNH, KHÓM 2, PHƯỜNG 1, THÀNH PHỐ SA ĐÉC, TỈNH ĐỒNG THÁP",10.2977679,105.7604018,2024-07-01 00:00:00.000
VNVC,VNVC NAM Ô,"28 – 30 ĐƯỜNG MÊ LINH, KHU TÁI ĐỊNH CƯ HÒA HIỆP, TỔ 19, PHƯỜNG HÒA HIỆP NAM, QUẬN LIÊN CHIỂU, THÀNH PHỐ ĐÀ NẴNG",16.098425,108.1344902,2024-06-30 00:00:00.000
VNVC,VNVC AN KHÊ,"1316 QUANG TRUNG, TỔ 2, PHƯỜNG TÂY SƠN, THỊ XÃ AN KHÊ, TỈNH GIA LAI",13.9520546,108.658834,2024-06-25 00:00:00.000
VNVC,VNVC TRẢNG DÀI,"SỐ 241, ĐƯỜNG BÙI TRỌNG NGHĨA, KHU PHỐ 2, PHƯỜNG TRẢNG DÀI, THÀNH PHỐ BIÊN HÒA, TỈNH ĐỒNG NAI",10.980316,106.8557693,2024-06-15 00:00:00.000
VNVC,VNVC ĐÔNG HÀ,"SỐ 151 ĐƯỜNG HÙNG VƯƠNG, PHƯỜNG 5, THÀNH PHỐ ĐÔNG HÀ, TỈNH QUẢNG TRỊ",16.8047434,107.105744,2024-06-13 00:00:00.000
VNVC,VNVC HƯƠNG THỦY,"580 NGUYỄN TẤT THÀNH, TỔ 4, PHƯỜNG THỦY CHÂU, THỊ XÃ HƯƠNG THỦY, THÀNH PHỐ HUẾ",16.4241657,107.6567931,2024-06-04 00:00:00.000
VNVC,VNVC LẠNG SƠN,"SỐ 485 ĐƯỜNG BÀ TRIỆU, PHƯỜNG VĨNH TRẠI, THÀNH PHỐ LẠNG SƠN, TỈNH LẠNG SƠN",21.85378696,106.7621312,2024-05-19 00:00:00.000
VNVC,VNVC CÁT LINH,"TẦNG 2, TÒA NHÀ THƯƠNG MẠI DỊCH VỤ, SỐ 214 PHỐ HÀO NAM, PHƯỜNG CÁT LINH, QUẬN ĐỐNG ĐA, THÀNH PHỐ HÀ NỘI",21.028674,105.8277839,2024-05-19 00:00:00.000
VNVC,VNVC NGUYỄN VĂN QUÁ,"SỐ 71 -73 NGUYỄN VĂN QUÁ, PHƯỜNG TÂN HƯNG THUẬN, QUẬN 12, TP. HCM",10.8284973,106.6267283,2024-05-13 00:00:00.000
VNVC,VNVC ĐIỆN BIÊN,"VINCOM ĐIỆN BIÊN, 60B, TỔ 7, PHƯỜNG MƯỜNG THANH, THÀNH PHỐ ĐIỆN BIÊN PHỦ, TỈNH ĐIỆN BIÊN ",21.3874444,103.0159167,2024-05-04 00:00:00.000
VNVC,VNVC CẨM PHẢ,"TỔ 2, KHU SƠN THẠCH, PHƯỜNG CẨM THẠCH, THÀNH PHỐ CẨM PHẢ, TỈNH QUẢNG NINH",21.009682,107.2513001,2024-04-29 00:00:00.000
VNVC,VNVC THỌ XUÂN,"KIOT 18,19,20 ĐƯỜNG LAM SƠN, KHU ĐÔ THỊ NGÔI SAO, THỊ TRẤN THỌ XUÂN,  HUYỆN THỌ XUÂN, TỈNH THANH HÓA",19.9356975,105.5334804,2024-04-28 00:00:00.000
VNVC,VNVC CHÂU ĐỐC,"60 PHAN ĐÌNH PHÙNG, PHƯỜNG CHÂU PHÚ B, THÀNH PHỐ CHÂU ĐỐC, TỈNH AN GIANG",10.7078366,105.1211727,2024-04-25 00:00:00.000
VNVC,VNVC HUỲNH TẤN PHÁT,"1189 HUỲNH TẤN PHÁT, PHƯỜNG PHÚ THUẬN, QUẬN 7, THÀNH PHỐ HỒ CHÍ MINH",10.7224205,106.7359406,2024-04-20 00:00:00.000
VNVC,VNVC GIA KIỆM,"SỐ 13/4 QUỐC LỘ 20, ẤP BẠCH LÂM 2, XÃ GIA TÂN 2, HUYỆN THỐNG NHẤT, TỈNH ĐỒNG NAI",11.0478321,107.1716883,2024-04-18 00:00:00.000
VNVC,VNVC MỎ CÀY NAM,"38B1, KHU PHỐ 7, THỊ TRẤN MỎ CÀY, HUYỆN MỎ CÀY NAM, TỈNH BẾN TRE",10.1341621,106.3319572,2024-04-07 00:00:00.000
VNVC,VNVC TRUNG KÍNH,"TẦNG 2, TOÀ NHÀ CHELSEA PARK, SỐ 116 TRUNG KÍNH, PHƯỜNG YÊN HOÀ, QUẬN CẦU GIẤY, THÀNH PHỐ HÀ NỘI",21.01935385,105.7933955,2024-03-28 00:00:00.000
VNVC,VNVC QUẬN 8,"TÒA GREEN RIVER, KHỐI C, TẦNG 02, SỐ 2225 PHẠM THẾ HIỂN, PHƯỜNG 6, QUẬN 8, TP.HỒ CHÍ MINH",10.7328225,106.6443176,2024-03-24 00:00:00.000
VNVC,VNVC QUẢNG NGÃI 2,"55 - 57 HAI BÀ TRƯNG, TỔ 6, PHƯỜNG LÊ HỒNG PHONG, THÀNH PHỐ QUẢNG NGÃI, TỈNH QUẢNG NGÃI",15.1328194,108.795947,2024-02-25 00:00:00.000
VNVC,VNVC HÒA THÀNH,"SỐ 64 ĐƯỜNG PHẠM VĂN ĐỒNG, KHU PHỐ HIỆP LONG, PHƯỜNG HIỆP TÂN, THỊ XÃ HÒA THÀNH, TỈNH TÂY NINH",11.289203,106.1206229,2024-02-25 00:00:00.000
VNVC,VNVC NHƠN TRẠCH,"ĐƯỜNG LÝ THÁI TỔ, TỔ 7, ẤP TRẦU, XÃ PHƯỚC THIỀN, HUYỆN NHƠN TRẠCH, TỈNH ĐỒNG NAI",10.7579101,106.9374062,2024-02-23 00:00:00.000
VNVC,VNVC PHÚC THỌ,"SỐ 124 ĐƯỜNG LẠC TRỊ, THỊ TRẤN PHÚC THỌ, HUYỆN PHÚC THỌ, THÀNH PHỐ HÀ NỘI",21.1044816,105.5452314,2024-02-18 00:00:00.000
VNVC,VNVC TỪ SƠN,"SỐ 266 ĐƯỜNG TRẦN PHÚ, PHƯỜNG ĐÌNH BẢNG, THÀNH PHỐ TỪ SƠN, TỈNH BẮC NINH",21.1133001,105.950781,2024-02-18 00:00:00.000
VNVC,VNVC PHAN RANG,"SỐ 35 ĐƯỜNG 21/08, PHƯƠNG PHỦ HÀ, THÀNH PHỐ PHAN RANG, TỈNH NINH THUẬN",11.5714265,108.9870432,2024-02-15 00:00:00.000
VNVC,VNVC AN LẠC,"539A - 539B ĐƯỜNG KINH DƯƠNG VƯƠNG (NGAY VÒNG XOAY AN LẠC), KHU PHỐ 1, PHƯỜNG AN LẠC, QUẬN BÌNH TÂN, TP.HCM",10.7234919,106.6018091,2024-02-13 00:00:00.000
VNVC,VNVC BỬU LONG,"SỐ 315, ĐƯỜNG HUỲNH VĂN NGHỆ, KHU PHỐ 2, PHƯỜNG BỬU LONG, THÀNH PHỐ BIÊN HÒA, TỈNH ĐỒNG NAI",10.95448933,106.796221,2024-02-06 00:00:00.000
VNVC,VNVC ĐÔNG HÒA,"TẦNG 2 CHUNG CƯ PHÚC ĐẠT CONNECT 2, SỐ 159 QUỐC LỘ 1K, PHƯỜNG ĐÔNG HÒA, THÀNH PHỐ DĨ AN, TỈNH BÌNH DƯƠNGGIỜ HOẠT ĐỘNG:THỨ 2 ĐẾN THỨ 7: TỪ 7H30 ĐẾN 17H00- CHỦ NHẬT: TỪ 7H00 ĐẾN 17H00",10.8905469,106.7849933,2024-02-04 00:00:00.000
VNVC,VNVC MỸ THO 3,"304 BIS LÝ THƯỜNG KIỆT, KHU PHỐ 9, PHƯỜNG 5, TP MỸ THO, TỈNH TIỀN GIANG",10.3621681,106.3523126,2024-02-04 00:00:00.000
VNVC,VNVC CỦ CHI 2,"SỐ 830, ĐƯỜNG PHAN VĂN KHẢI, KHU PHỐ 8, THỊ TRẤN CỦ CHI, HUYỆN CỦ CHI, TP.HCM",10.969689,106.4843585,2024-01-10 00:00:00.000
VNVC,VNVC PHÚ GIÁO,"SỐ 534 TỔ 5, KP2, THỊ TRẤN PHƯỚC VĨNH, HUYỆN PHÚ GIÁO, TỈNH BÌNH DƯƠNG",11.2906829,106.7955178,2024-01-10 00:00:00.000
VNVC,VNVC NGUYỄN TRÃI,"GIAN HÀNG SỐ 101B, TẦNG 01, TÒA NHÀ N01B – TRUNG TÂM THƯƠNG MẠI, DỊCH VỤ, NHÀ Ở GOLDEN – LAND BUILDING, SỐ 275 NGUYỄN TRÃI, PHƯỜNG THANH XUÂN TRUNG, QUẬN THANH XUÂN, THÀNH PHỐ HÀ NỘI",20.9930875,105.80723,2024-01-09 00:00:00.000
VNVC,VNVC LONG THẠNH MỸ,"72 NGUYỄN VĂN TĂNG, KHU PHỐ CHÂN PHÚC CẨM, PHƯỜNG LONG THẠNH MỸ, THÀNH PHỐ THỦ ĐỨC, THÀNH PHỐ HỒ CHÍ MINH",10.847428,106.8155561,2024-01-05 00:00:00.000
VNVC,VNVC BÌNH LONG,"ĐƯỜNG NGUYỄN DU (HƯỚNG VỀ MŨI TÀU SÂN BAY) KHU PHỐ PHÚ XUÂN, PHƯỜNG PHÚ THỊNH, THỊ XÃ BÌNH LONG, TỈNH BÌNH PHƯỚC",11.6624918,106.6125274,2024-01-01 00:00:00.000
VNVC,VNVC THANH KHÊ,"369 ĐIỆN BIÊN PHỦ, PHƯỜNG HÒA KHÊ, QUẬN THANH KHÊ, THÀNH PHỐ ĐÀ NẴNG",16.0656394,108.1902248,2023-12-29 00:00:00.000
VNVC,VNVC SÓC TRĂNG,"TẦNG TRỆT, TRUNG TÂM THƯƠNG MẠI SÀI GÒN CO.OP, SỐ 6 KHÓM 6 HÙNG VƯƠNG, PHƯỜNG 6, THÀNH PHỐ SÓC TRĂNG, TỈNH SÓC TRĂNG",9.6125326,105.9694004,2023-12-18 00:00:00.000
VNVC,VNVC LÊ VĂN THIÊM,"L0102 THUỘC TẦNG 2, TÒA NHÀ STELLAR GARDEN TẠI ĐỊA CHỈ: SỐ 35 ĐƯỜNG LÊ VĂN THIÊM, PHƯỜNG THANH XUÂN TRUNG, QUẬN THANH XUÂN, THÀNH PHỐ HÀ NỘI",21.00012544,105.8013244,2023-12-16 00:00:00.000
VNVC,VNVC PHỐ NHỔN,"TẦNG 2, TÒA A, TÒA NHÀ NT HOME SỐ 109 PHỐ NHỔN, PHƯỜNG PHƯƠNG CANH, QUẬN NAM TỪ LIÊM, THÀNH PHỐ HÀ NỘI",21.05617625,105.7312649,2023-12-14 00:00:00.000
VNVC,VNVC Ô MÔN,"SỐ 411 ĐƯỜNG TRẦN HƯNG ĐẠO, KHU VỰC 15, PHƯỜNG CHÂU VĂN LIÊM, QUẬN Ô MÔN, THÀNH PHỐ CẦN THƠ",10.1156538,105.6366478,2023-12-10 00:00:00.000
VNVC,VNVC BẠC LIÊU,"02 - 04 - 06 HOÀNG VĂN THỤ, PHƯỜNG 3, THÀNH PHỐ BẠC LIÊU (NGAY GÓC PHẢI KHÁCH SẠN SÀI GÒN  BẠC LIÊU)",9.2848536,105.7239031,2023-12-07 00:00:00.000
VNVC,VNVC BÌNH MINH,"SỐ 79A, ĐƯỜNG NGUYỄN VĂN THẢNH, TỔ 6, KHÓM 2, PHƯỜNG CÁI VỒN, THỊ XÃ BÌNH MINH, TỈNH VĨNH LONG",10.0693632,105.8161477,2023-12-02 00:00:00.000
VNVC,VNVC KIẾN TƯỜNG,"SỐ 180 HÙNG VƯƠNG, KHU PHỐ 1, PHƯỜNG 3, THỊ XÃ KIẾN TƯỜNG, TỈNH LONG AN",10.7789534,105.9304639,2023-11-27 00:00:00.000
VNVC,VNVC HAI BÀ TRƯNG,"290 HAI BÀ TRƯNG, PHƯỜNG TÂN ĐỊNH, QUẬN 1, THÀNH PHỐ HỒ CHÍ MINH",10.7891585,106.69066,2023-11-13 00:00:00.000
VNVC,VNVC PHONG PHÚ,"A4/118 ẤP 1, XÃ PHONG PHÚ, HUYỆN BÌNH CHÁNH, HỒ CHÍ MINH, THÀNH PHỐ HỒ CHÍ MINH",10.6829029,106.6509668,2023-11-11 00:00:00.000
VNVC,VNVC NGHI TÀM,"SỐ 175 NGHI TÀM, PHƯỜNG YÊN PHỤ, QUẬN TÂY HỒ, THÀNH PHỐ HÀ NỘI (NẰM TRÊN ĐƯỜNG NGHI TÀM, CÁCH HỒ TÂY 700M)",21.055241,105.83664,2023-11-11 00:00:00.000
VNVC,VNVC THỐT NỐT,"545C QL91, KHU VỰC LONG THẠNH 2, PHƯỜNG THỐT NỐT, QUẬN THỐT NỐT, THÀNH PHỐ CẦN THƠ",10.2802002,105.5243193,2023-11-11 00:00:00.000
VNVC,VNVC VIỆT HƯNG,"CĂN HỘ C4 LÔ BT04, ĐÔ THỊ MỚI VIỆT HƯNG, PHƯỜNG GIANG BIÊN, QUẬN LONG BIÊN, THÀNH PHỐ HÀ NỘI (ĐỐI DIỆN TRƯỜNG THCS ĐÔ THỊ VIỆT HƯNG, CÁCH 30M, CẠNH TRƯỜNG MẦM NON THÁNH GIÓNG CS1)",21.0674646,105.9100182,2023-11-11 00:00:00.000
VNVC,VNVC GIA LÂM,"SỐ 187 ĐƯỜNG NGÔ XUÂN QUẢNG, THỊ TRẤN TRÂU QUỲ, HUYỆN GIA LÂM, THÀNH PHỐ HÀ NỘI (CÁCH TRỤC ĐƯỜNG QL5 KHOẢNG 500M, CÁCH ĐƯỜNG CỔ BI KHOẢNG 500M)",21.0159662,105.9366888,2023-11-08 00:00:00.000
VNVC,VNVC CẨM LỆ,"432 - 434 - 436 ĐƯỜNG CÁCH MẠNG THÁNG TÁM, PHƯỜNG HÒA THỌ ĐÔNG, QUẬN CẨM LỆ, THÀNH PHỐ ĐÀ NẴNG",16.0143399,108.1986403,2023-11-01 00:00:00.000
VNVC,VNVC CÁI BÈ,"242 - KHU 2, TRƯƠNG CÔNG ĐỊNH, THỊ TRẤN CÁI BÈ, HUYỆN CÁI BÈ, TỈNH TIỀN GIANG",10.3302666,106.0315406,2023-11-01 00:00:00.000
VNVC,VNVC TÂN HIỆP,"ẤP TÂN PHÚ, XÃ TÂN LÝ TÂY, HUYỆN CHÂU THÀNH, TỈNH TIỀN GIANG",10.455451,106.346601,2023-10-29 00:00:00.000
VNVC,VNVC VĂN GIANG,"SỐ 555, KHU ĐÔ THỊ MỚI VĂN GIANG, THỊ TRẤN VĂN GIANG, HUYỆN VĂN GIANG, TỈNH HƯNG YÊN (NẰM NGAY NGÃ TƯ THỊ TRẤN VĂN GIANG)",20.9466338,105.9413455,2023-10-20 00:00:00.000
VNVC,VNVC THANH TRÌ,"Ô ĐẤT SỐ 5 BT4 ĐTM PHÁP VÂN - TỨ HIỆP, SỐ 6A PHỐ TRẦN THỦ ĐỘ, PHƯỜNG HOÀNG LIỆT, QUẬN HOÀNG MAI, THÀNH PHỐ HÀ NỘI (NẰM TRÊN ĐƯỜNG TRẦN THỦ ĐỘ, CÁCH CẦU TỨ HIỆP VỀ PHÍA BẮC 300M, CÁCH MITSUBISHI MOTORS VIỆT HỒNG 300M)",20.9542391,105.8469897,2023-10-12 00:00:00.000
VNVC,VNVC LẠC LONG QUÂN,"TẦNG 3, TÒA NHÀ THƯƠNG MẠI, DỊCH VỤ VÀ VĂN PHÒNG, SỐ 89 ĐƯỜNG LẠC LONG QUÂN, PHƯỜNG NGHĨA ĐÔ, QUẬN CẦU GIẤY, THÀNH PHỐ HÀ NỘI. ",21.0505278,105.8075,2023-10-12 00:00:00.000
VNVC,VNVC QUẬN 5,"TẦNG 6 TÒA NHÀ HÙNG VƯƠNG PLAZA, 126 ĐƯỜNG HỒNG BÀNG, PHƯỜNG 12, QUẬN 5, THÀNH PHỐ HỒ CHÍ MINHGIỜ LÀM VIỆC- THỨ 2 ĐẾN 6: 7H30 ĐẾN 17H00- THỨ 7 & CN: 7H00 ĐẾN 17H00",10.7558816,106.662859,2023-09-29 00:00:00.000
VNVC,VNVC BẾN CÁT,"SỐ 580, ĐƯỜNG QUỐC LỘ 13, KHU PHỐ 4, PHƯỜNG MỸ PHƯỚC, THỊ XÃ BẾN CÁT, TỈNH BÌNH DƯƠNG",11.1345966,106.604123,2023-09-24 00:00:00.000
VNVC,VNVC QUẬN 6,"TẦNG 2, TÒA NHÀ NHẬT ĐỈNH TOWER, 245 NGUYỄN VĂN LUÔNG, PHƯỜNG 11, QUẬN 6, TP.HCMGIỜ LÀM VIỆC- THỨ 2 ĐẾN 6: 7H30 ĐẾN 17H00- THỨ 7 & CN: 7H00 ĐẾN 17H00",10.7466547,106.6352277,2023-09-20 00:00:00.000
VNVC,VNVC CỔ NHUẾ,"LÔ SỐ 33, KHU NHÀ Ở THẤP TẦNG TT3, KHU ĐÔ THỊ THÀNH PHỐ GIAO LƯU, SỐ 232- 234 ĐƯỜNG PHẠM VĂN ĐỒNG, PHƯỜNG CỔ NHUẾ 1, QUẬN BẮC TỪ LIÊM, THÀNH PHỐ HÀ NỘI (CẠNH NGÃ TƯ VÒNG TRÒN GIAO ĐƯỜNG 23 VÀ ĐƯỜNG SỐ 1, KHU ĐÔ THỊ THÀNH PHỐ GIAO LƯU: CÁCH 50M)",21.05566332,105.7782978,2023-09-13 00:00:00.000
VNVC,VNVC CẦN GIUỘC,"SỐ 37 ĐƯỜNG NGUYỄN THÁI BÌNH, KHU PHỐ TRỊ YÊN, THỊ TRẤN CẦN GIUỘC, HUYỆN CẦN GIUỘC, TỈNH LONG AN",10.6150184,106.6658353,2023-09-10 00:00:00.000
VNVC,VNVC HÀ NAM,"TDP MỄ NỘI, ĐƯỜNG LÊ DUẨN, PHƯỜNG LIÊM CHÍNH, THÀNH PHỐ PHỦ LÝ, TỈNH HÀ NAM (NGÃ TƯ VÀO TRƯỜNG CHUYÊN BIÊN HÒA, CẠNH HYUNDAI HÀ NAM, ĐỐI DIỆN NHÀ HÀNG NGỌC SƠN)",20.5357106,105.9310298,2023-09-10 00:00:00.000
VNVC,VNVC TRẢNG BOM,"Ô 54 – Ô 55 – Ô 56, LÔ B KHU DÂN CƯ VÀ SIÊU THỊ, THỊ TRẤN TRẢNG BOM, HUYỆN TRẢNG BOM, TỈNH ĐỒNG NAI",10.95775263,107.0030877,2023-08-31 00:00:00.000
VNVC,VNVC HIỆP BÌNH PHƯỚC,"SỐ 566 QUỐC LỘ 13, KHU PHỐ 6, PHƯỜNG HIỆP BÌNH PHƯỚC, THÀNH PHỐ THỦ ĐỨC, THÀNH PHỐ HỒ CHÍ MINH. (GẦN CÔNG TY GIÀY GIA ĐỊNH)",10.8476456,106.7186034,2023-08-30 00:00:00.000
VNVC,VNVC NHA TRANG,"TẦNG 10, TTTM GOLD COAST, SỐ 01 TRẦN HƯNG ĐẠO, PHƯỜNG LỘC THỌ, THÀNH PHỐ NHA TRANG, TỈNH KHÁNH HÒA",12.24649799,109.1741163,2023-08-30 00:00:00.000
VNVC,VNVC PHỐ NỐI,"239 -243 ĐƯỜNG NGUYỄN VĂN LINH, PHƯỜNG BẦN YÊN NHÂN, THỊ XÃ MỸ HÀO, TỈNH HƯNG YÊN (MẶT ĐƯỜNG QL5 CŨ, CÁCH NGÃ 4 CHỢ BẦN KHOẢNG 200M)",20.9365906,106.0482403,2023-08-24 00:00:00.000
VNVC,VNVC PHẠM HÙNG,"GIAN SỐ L2-04 (TẦNG 2-TTTM SATRA ĐƯỜNG PHẠM HÙNG), C6/27 PHẠM HÙNG, XÃ BÌNH HƯNG, HUYỆN BÌNH CHÁNH, TP.HCM",10.7337165,106.6746819,2023-08-23 00:00:00.000
VNVC,VNVC THỚI AN,"109 ĐƯỜNG LÊ THỊ RIÊNG (THỚI AN 28), PHƯỜNG THỚI AN, QUẬN 12, TP.HCM",10.8799317,106.6547097,2023-08-09 00:00:00.000
VNVC,VNVC TÂY MỖ,"SỐ NHÀ JA11-02, KHU ĐÔ THỊ THIÊN ĐƯỜNG BẢO SƠN, XÃ AN KHÁNH, HUYỆN HOÀI ĐỨC, THÀNH PHỐ HÀ NỘI (NẰM TRÊN TRỤC ĐƯỜNG LÊ TRỌNG TẤN, CÁCH CỔNG CÔNG VIÊN THIÊN ĐƯỜNG BẢO SƠN 200M TRÊN CÙNG BÊN ĐƯỜNG)",21.00202937,105.7358336,2023-08-09 00:00:00.000
VNVC,VNVC VĂN PHÚ,"TẦNG 1, CHUNG CƯ LA CASTA TOWER, KHU ĐÔ THỊ MỚI VĂN PHÚ, PHƯỜNG PHÚ LA, QUẬN HÀ ĐÔNG, TP. HÀ NỘI (NẰM TRÊN ĐƯỜNG ĐI VÀO KHU ĐÔ THỊ VĂN PHÚ, NGÃ TƯ LÊ TRỌNG TẤN - QUANG TRUNG - VĂN KHÊ, PHÍA BÊN TAY PHẢI LÀ TÒA NHÀ LA CASTA VĂN PHÚ (ĐỐI DIỆN TÒA NHÀ VĂN PHÚ VICTORIA 300M))",20.9604098,105.7661133,2023-08-09 00:00:00.000
VNVC,VNVC TÂN UYÊN,"ĐƯỜNG DT746, TỔ 4, KHU PHỐ 8, PHƯỜNG UYÊN HƯNG, THÀNH PHỐ TÂN UYÊN, TỈNH BÌNH DƯƠNG",11.0564497,106.7724437,2023-08-01 00:00:00.000
VNVC,VNVC NGUYỄN DUY TRINH 1,"TẦNG TRỆT- KHỐI 4 -TÒA NHÀ ASTORIA,  383-385 NGUYỄN DUY TRINH, P. BÌNH TRƯNG TÂY, TP. THỦ ĐỨC, TP.HCM",10.7889153,106.7680538,2023-08-01 00:00:00.000
VNVC,VNVC NGUYỄN DUY TRINH 2,"733A NGUYỄN DUY TRINH, KHU PHỐ 2, PHƯỜNG PHÚ HỮU,TP THỦ ĐỨC, TPHCM,VIỆT NAM",10.7906458,106.7819129,2023-07-27 00:00:00.000
VNVC,VNVC TAM TRINH,"SỐ 156 ĐƯỜNG TAM TRINH, PHƯỜNG YÊN SỞ, QUẬN HOÀNG MAI, THÀNH PHỐ HÀ NỘI (CÙNG TRỤC ĐƯỜNG VỚI ĐẠI SIÊU THỊ METRO 126 TAM TRINH, ĐIỂM MUA SẮM CỦA CƯ DÂN KHU VỰC YÊN SỞ: CÁCH 100M)",20.96839327,105.8671229,2023-07-20 00:00:00.000
VNVC,VNVC QUẬN 10,"460 ĐƯỜNG 3 THÁNG 2, PHƯỜNG 12, QUẬN 10, TP. HỒ CHÍ MINH, VIỆT NAM",10.7686485,106.6677846,2023-07-12 00:00:00.000
VNVC,VNVC TRỰC NINH,"SỐ 136, ĐƯỜNG 21B, THỊ TRẤN CỔ LỄ, HUYỆN TRỰC NINH, TỈNH NAM ĐỊNH, VIỆT NAM (CÁCH CẦU ĐIỆN BIÊN 200M, HƯỚNG ĐI TỪ TP.NAM ĐỊNH XUỐNG HUYỆN HẢI HẬU)",20.3110916,106.271314,2023-06-18 00:00:00.000
VNVC,VNVC QUẾ VÕ,"PHỐ MAO DỘC, PHƯỜNG PHƯỢNG MAO, THỊ XÃ QUẾ VÕ, TỈNH BẮC NINH, VIỆT NAM (NẰM TRÊN ĐƯỜNG QL18, ĐỐI DIỆN KHU DÂN CƯ TÂY HỒ)",21.1547829,106.1403676,2023-06-12 00:00:00.000
VNVC,VNVC THẠNH LỘC,"97 ĐƯỜNG TL 19, KHU PHỐ 3B, PHƯỜNG THẠNH LỘC, QUẬN 12, TP. HỒ CHÍ MINH",10.8662951,106.6810212,2023-06-06 00:00:00.000
VNVC,VNVC LINH ĐÀM,"SỐ 8-TT3B KHU ĐÔ THỊ TÂY NAM LINH ĐÀM, QUẬN HOÀNG MAI, THÀNH PHỐ HÀ NỘI (NẰM TRÊN ĐƯỜNG LINH ĐƯỜNG, CẠNH TRUNG TÂM VĂN HÓA THỂ THAO QUẬN HOÀNG MAI, RẠP CHIẾU PHIM CGV, ĐỐI DIỆN TTVHTT QUẬN 50M)",20.96248984,105.8260644,2023-05-24 00:00:00.000
VNVC,VNVC KON TUM,"786 PHAN ĐÌNH PHÙNG, PHƯỜNG QUANG TRUNG, THÀNH PHỐ KON TUM, TỈNH KON TUM",14.3580278,107.9999167,2023-05-20 00:00:00.000
VNVC,VNVC PLEIKU,"264 PHAN ĐÌNH PHÙNG, P. YÊN ĐỖ, THÀNH PHỐ PLEIKU, GIA LAI",13.972314,108.0478039,2023-04-28 00:00:00.000
VNVC,VNVC TUY HÒA,"183 NGUYỄN HUỆ, PHƯỜNG 5, THÀNH PHỐ TUY HÒA, TỈNH PHÚ YÊN",13.0913268,109.305016,2023-04-26 00:00:00.000
VNVC,VNVC VĨNH LỘC,"SỐ 331 (SỐ CŨ C2/15H) ĐƯỜNG VÕ VĂN VÂN, XÃ VĨNH LỘC B, HUYỆN BÌNH CHÁNH, TP. HCM (GẦN NHÀ MÁY BỘT MÌ MINH NHẬT)",10.7987043,106.5776443,2023-04-21 00:00:00.000
VNVC,VNVC GÒ CÔNG,"159F QUỐC LỘ 50, ẤP LONG HƯNG, XÃ LONG CHÁNH, THỊ XÃ GÒ CÔNG, TỈNH TIỀN GIANG (GẦN TRỤ SỞ CÔNG AN THỊ XÃ GÒ CÔNG)",10.35993115,106.6575932,2023-04-15 00:00:00.000
VNVC,VNVC MINH KHAI,"TẦNG 2, TÒA NHÀ HÀN VIỆT, SỐ 203 PHỐ MINH KHAI (NGÃ 4 CẦU MAI ĐỘNG), PHƯỜNG MINH KHAI, QUẬN HAI BÀ TRƯNG, THÀNH PHỐ HÀ NỘI (NGÃ TƯ KIM NGƯU VÀ MINH KHAI, GẦN TÒA NHÀ HINODE CITY (CÁCH 30M))",20.9969827,105.8617452,2023-04-02 00:00:00.000
VNVC,VNVC HÓC MÔN,"338 TÔ KÝ, ẤP TAM ĐÔNG 1, XÃ THỚI TAM THÔN, HUYỆN HÓC MÔN, TP. HCM",10.8809346,106.6088339,2023-03-25 00:00:00.000
VNVC,VNVC HỘI AN,"537 HAI BÀ TRƯNG, PHƯỜNG CẨM PHÔ, THÀNH PHỐ HỘI AN, TỈNH QUẢNG NAM",15.8828742,108.3249528,2023-03-25 00:00:00.000
VNVC,VNVC CHỢ GẠO,"SỐ 530 Ô 1, KHU 2, THỊ TRẤN CHỢ GẠO, HUYỆN CHỢ GẠO, TỈNH TIỀN GIANG (GẦN CẦU CHỢ GẠO 2)",10.3585749,106.4646721,2023-02-25 00:00:00.000
VNVC,VNVC PHÚ MỸ,"TẦNG TRỆT, TRUNG TÂM THƯƠNG MẠI SÀI GÒN CO.OP, QUỐC LỘ 51, TỔ 12, KHU PHỐ TÂN PHÚ, P. PHÚ MỸ, THỊ XÃ PHÚ MỸ, TỈNH BÀ RỊA – VŨNG TÀU",10.59629611,107.0487157,2023-02-20 00:00:00.000
VNVC,VNVC TRÀ VINH,"TẦNG 01 TRUNG TÂM THƯƠNG MẠI GO! TRÀ VINH, ĐƯỜNG VÕ NGUYÊN GIÁP, PHƯỜNG 07, THÀNH PHỐ TRÀ VINH, TỈNH TRÀ VINH",9.9235257,106.3276571,2023-02-10 00:00:00.000
VNVC,VNVC THƯỜNG TÍN,"SỐ 112 ĐƯỜNG TRẦN LƯ, THỊ TRẤN THƯỜNG TÍN, HUYỆN THƯỜNG TÍN, THÀNH PHỐ HÀ NỘI (NẰM TRÊN QL1A. CẠNH NGÂN HÀNG AGRIBANK VÀ CÂY XĂNG DẦU SỐ 5, CÁCH NGÃ BA GA THƯỜNG TÍN 200M)",20.8741421,105.8632572,2023-01-17 00:00:00.000
VNVC,VNVC BÀU BÀNG,"SỐ 3-4 LÔ A8, ĐƯỜNG NC, KHU PHỐ ĐỒNG SỔ, THỊ TRẤN LAI UYÊN, HUYỆN BÀU BÀNG, TỈNH BÌNH DƯƠNG",11.242979,106.6366972,2023-01-12 00:00:00.000
VNVC,VNVC TÂN TÚC BÌNH CHÁNH,"SỐ 312 BÙI THANH KHIẾT, KHU PHỐ 3, THỊ TRẤN TÂN TÚC, HUYỆN BÌNH CHÁNH",10.6891621,106.5750416,2023-01-11 00:00:00.000
VNVC,VNVC ĐỊNH QUÁN,"KM 116, QUỐC LỘ 20, XÃ PHÚ LỢI, HUYỆN ĐỊNH QUÁN, TỈNH ĐỒNG NAI (ĐỐI DIỆN TRƯỜNG THCS LÝ THƯỜNG KIỆT)",11.2139275,107.3687918,2023-01-08 00:00:00.000
VNVC,VNVC HẬU NGHĨA,"SỐ 464 Ô 3, KHU A, THỊ TRẤN HẬU NGHĨA, HUYỆN ĐỨC HÒA, TỈNH LONG AN (CÁCH TRƯỜNG PTTH HẬU NGHĨA 100 MÉT)",10.9074052,106.3875968,2023-01-05 00:00:00.000
VNVC,VNVC NGÃ BẢY HẬU GIANG,"2035 HÙNG VƯƠNG, KHU VỰC III, PHƯỜNG NGÃ BẢY, THÀNH PHỐ NGÃ BẢY, TỈNH HẬU GIANG",9.8136635,105.8182283,2022-12-31 00:00:00.000
VNVC,VNVC DƯƠNG NỘI,"TẦNG 1 – TÒA NHÀ CT4, THE PRIDE, KHU ĐÔ THỊ MỚI AN HƯNG, PHƯỜNG LA KHÊ, QUẬN HÀ ĐÔNG, THÀNH PHỐ HÀ NỘI (NẰM TRÊN ĐƯỜNG NGUYỄN THANH BÌNH, ĐỐI DIỆN KHU ĐÔ THỊ THE TERA - AN HƯNG)",20.9717677,105.7570392,2022-12-24 00:00:00.000
VNVC,VNVC QUẬN 9,"SÀI GÒN VILLAS HILL, 99 LÊ VĂN VIỆT, P. TĂNG PHÚ NHƠN A, TP. THỦ ĐỨC, TP. HỒ CHÍ MINH",10.8450297,106.7936667,2022-12-18 00:00:00.000
VNVC,VNVC TUYÊN QUANG,"TẦNG 1 – TÒA NHÀ KHÁCH SẠN MƯỜNG THANH TUYÊN QUANG, SỐ 207 ĐƯỜNG BÌNH THUẬN, TỔ 13, PHƯỜNG TÂN QUANG, THÀNH PHỐ TUYÊN QUANG, TỈNH TUYÊN QUANG (GẦN QUẢNG TRƯỜNG NGUYỄN TẤT THÀNH, TRUNG TÂM CHÍNH CỦA TP. TUYÊN QUANG CÁCH 400M)",21.819042,105.2141329,2022-12-18 00:00:00.000
VNVC,VNVC BÌNH TÂN 2,"LẦU 1 SIÊU THỊ SÀI GÒN CO.OP BÌNH TÂN 2, SỐ 819 HƯƠNG LỘ 2, PHƯỜNG BÌNH TRỊ ĐÔNG A, QUẬN BÌNH TÂN, THÀNH PHỐ HỒ CHÍ MINH",10.76958733,106.5949879,2022-11-20 00:00:00.000
VNVC,VNVC ĐAN PHƯỢNG,"TẦNG 3 - TRUNG TÂM THƯƠNG MẠI TUẤN QUỲNH, PHỐ THỤY ỨNG, THỊ TRẤN PHÙNG, HUYỆN ĐAN PHƯỢNG, THÀNH PHỐ HÀ NỘI (NẰM TẠI TRUNG TÂM THỊ TRẤN PHÙNG, TỨC SIÊU THỊ LAN CHI CŨ, ĐỐI DIỆN VỚI TƯỢNG ĐÀI TỔ QUỐC GHI CÔNG, CÁCH 30M)",21.086018,105.6634667,2022-11-17 00:00:00.000
VNVC,VNVC NGŨ HÀNH SƠN ĐÀ NẴNG,"367 LÊ VĂN HIẾN, PHƯỜNG HÒA HẢI, QUẬN NGŨ HÀNH SƠN, THÀNH PHỐ ĐÀ NẴNG",16.0082795,108.2585022,2022-11-13 00:00:00.000
VNVC,VNVC LIÊN CHIỂU,"SỐ 161 ÂU CƠ, PHƯỜNG HOÀ KHÁNH BẮC, QUẬN LIÊN CHIỂU, THÀNH PHỐ ĐÀ NẴNG",16.0710273,108.1431379,2022-11-13 00:00:00.000
VNVC,VNVC HẢI HẬU,"SỐ NHÀ 321, TỔ DÂN PHỐ SỐ 3, THỊ TRẤN YÊN ĐỊNH, HUYỆN HẢI HẬU, NAM ĐỊNH (CÁCH BỆNH VIỆN ĐA KHOA HẢI HẬU 500M, HƯỚNG ĐI XUỐNG THỊ TRẤN CỒN HẢI HẬU)",20.1901654,106.2921951,2022-11-01 00:00:00.000
VNVC,VNVC AN NHƠN,"330 TRƯỜNG CHINH, KHU VỰC AN NGÃI, PHƯỜNG NHƠN HƯNG, THỊ XÃ AN NHƠN, TỈNH BÌNH ĐỊNH",13.8978624,109.1089677,2022-10-23 00:00:00.000
VNVC,VNVC HOÀI NHƠN,"95 TRẦN HƯNG ĐẠO, PHƯỜNG BỒNG SƠN, THỊ XÃ HOÀI NHƠN, TỈNH BÌNH ĐỊNH",14.4320562,109.0139384,2022-10-16 00:00:00.000
VNVC,VNVC PHẠM VĂN ĐỒNG,"SỐ 134 PHẠM VĂN ĐỒNG, PHƯỜNG XUÂN ĐỈNH, QUẬN BẮC TỪ LIÊM, HÀ NỘI (CẠNH TRƯỜNG ĐH TÀI CHÍNH – NGÂN HÀNG, GẦN NGÃ TƯ TÂN XUÂN)",21.0763948,105.7857267,2022-10-16 00:00:00.000
VNVC,VNVC CHÂU Ổ,"SỐ 496 PHẠM VĂN ĐỒNG, THỊ TRẤN CHÂU Ổ, HUYỆN BÌNH SƠN, QUẢNG NGÃI",15.2941918,108.7621391,2022-09-21 00:00:00.000
VNVC,VNVC ĐỨC PHỔ,"SỐ 294 NGUYỄN NGHIÊM, TDP 5, PHƯỜNG NGUYỄN NGHIÊM, ĐỨC PHỔ, QUẢNG NGÃI",14.8171541,108.95314,2022-09-21 00:00:00.000
VNVC,VNVC PHỔ YÊN,"SỐ 588 PHẠM VĂN ĐỒNG, TỔ DÂN PHỐ 2, PHƯỜNG BA HÀNG, THÀNH PHỐ PHỔ YÊN, TỈNH THÁI NGUYÊN",21.4202198,105.8696188,2022-09-15 00:00:00.000
VNVC,VNVC HOẰNG HÓA,"SỐ 216, DT510, XÃ HOẰNG ĐỒNG, HUYỆN HOẰNG HOÁ, TỈNH THANH HOÁ",19.8369852,105.8509841,2022-09-15 00:00:00.000
VNVC,VNVC XUÂN MAI,"TỔ 2, KHU TÂN XUÂN, THỊ TRẤN XUÂN MAI, HUYỆN CHƯƠNG MỸ, HÀ NỘI (NẰM TRÊN TRỤC ĐƯỜNG HỒ CHÍ MINH, ĐỐI DIỆN AO SEN TRƯỜNG HỌC VIỆN LÂM NGHIỆP VIỆT NAM, CÁCH CỔNG TRƯỜNG LÂM NGHIỆP KHOẢNG 200M)",20.9096001,105.5777852,2022-09-15 00:00:00.000
VNVC,VNVC BẢO LỘC,"SIÊU THỊ SÀI GÒN CO.OP BẢO LỘC, THÁP NƯỚC, ĐƯỜNG TRẦN PHÚ, PHƯỜNG 2, THÀNH PHỐ BẢO LỘC, TỈNH LÂM ĐỒNG",11.5438048,107.8027565,2022-08-28 00:00:00.000
VNVC,VNVC GÒ VẤP,"304A QUANG TRUNG, PHƯỜNG 11, QUẬN GÒ VẤP, (LẦU 2 , TOÀ NHÀ TTTM CO.OPMART QUANG TRUNG), THÀNH PHỐ HỒ CHÍ MINH",10.8349116,106.6621977,2022-08-18 00:00:00.000
VNVC,VNVC CAI LẬY,"414 ĐƯỜNG QUỐC LỘ 1, KHU PHỐ 1, PHƯỜNG 04, THỊ XÃ CAI LẬY, TIỀN GIANG",10.4048338,106.1281988,2022-08-16 00:00:00.000
VNVC,VNVC CAO LÃNH,"SỐ 01 NGÔ THỜI NHẬM, PHƯỜNG 1, (TẦNG 3 CO.OP MART CAO LÃNH), CAO LÃNH, ĐỒNG THÁP",10.4595786,105.6406737,2022-08-15 00:00:00.000
VNVC,VNVC CỦ CHI,"1239 TỈNH LỘ 8, ẤP THẠNH AN, XÃ TRUNG AN, HUYỆN CỦ CHI, THÀNH PHỐ HỒ CHÍ MINH",10.9838831,106.5799733,2022-08-13 00:00:00.000
VNVC,VNVC DIỄN CHÂU,"SỐ 9, TỔ 1, KHỐI 3, THỊ TRẤN DIỄN CHÂU, HUYỆN DIỄN CHÂU, TỈNH NGHỆ AN",18.984409,105.5995691,2022-07-27 00:00:00.000
VNVC,VNVC TRIỆU SƠN,"53 PHỐ GIẮT, THỊ TRẤN TRIỆU SƠN, HUYỆN TRIỆU SƠN, THANH HÓA",19.8191916,105.606773,2022-07-27 00:00:00.000
VNVC,VNVC THIỆU HÓA,"TIỂU KHU 02, THỊ TRẤN THIỆU HOÁ, HUYỆN THIỆU HOÁ, TỈNH THANH HOÁ ",19.8963315,105.6793653,2022-07-27 00:00:00.000
VNVC,VNVC THỦ ĐỨC 2,"TẦNG 1 CĂN HỘ STOWN THỦ ĐỨC, SỐ 2 ĐƯỜNG BÌNH CHIỂU, BÌNH CHIỂU , TP THỦ ĐỨC",10.8730462,106.7332722,2022-07-13 00:00:00.000
VNVC,VNVC THÁI BÌNH,"TẦNG 1- TRUNG TÂM THƯƠNG MẠI GO! THÁI BÌNH, ĐƯỜNG TRẦN THÁI TÔNG, TỔ 1, PHƯỜNG PHÚ KHÁNH, TP THÁI BÌNH (NẰM TẦNG 1 TRUNG TÂM THƯƠNG MẠI GO! THÁI BÌNH, CẠNH GIAN HÀNG HIGHLANDS COFFEE)",20.4390852,106.3215991,2022-07-03 00:00:00.000
VNVC,VNVC THÁI HÒA,"38 LÊ HỒNG PHONG, KHỐI TÂN THÀNH, PHƯỜNG HOÀ HIẾU, TX. THÁI HOÀ, NGHỆ AN",19.3209798,105.4349109,2022-06-28 00:00:00.000
VNVC,VNVC ĐÔ LƯƠNG,"XÓM YÊN TRƯỜNG, XÃ YÊN SƠN, HUYỆN ĐÔ LƯƠNG, TỈNH NGHỆ AN ",18.8999747,105.3155584,2022-06-19 00:00:00.000
VNVC,VNVC BẾN LỨC,"TẦNG TRỆT SIÊU THỊ CO.OPMART BẾN LỨC, SỐ 61 QUỐC LỘ 1A, KHU PHỐ 4, THỊ TRẤN BẾN LỨC, HUYỆN BẾN LỨC, LONG AN- ",10.6379131,106.4826337,2022-05-29 00:00:00.000
VNVC,VNVC PHAN THIẾT,"M1, M2, M3, M4 ĐƯỜNG TÔN ĐỨC THẮNG, KHU PHỐ 1, PHƯỜNG XUÂN AN, TP. PHAN THIẾT, TỈNH BÌNH THUẬN",10.9452272,108.1113099,2022-05-10 00:00:00.000
VNVC,VNVC THUẬN AN,"TẦNG 02, 2F02 & 2F05, LOTTE MART BÌNH DƯƠNG, KHU ĐÔ THỊ SEASONS, P. LÁI THIÊU, TP. THUẬN AN, TỈNH BÌNH DƯƠNG, VIỆT NAM",10.9051307,106.711863,2022-05-06 00:00:00.000
VNVC,VNVC QUẬN 1,"TẦNG 2, TRUNG TÂM THƯƠNG MẠI NOWZONE, 235 NGUYỄN VĂN CỪ, P. NGUYỄN CƯ TRINH, QUẬN 1, TP. HỒ CHÍ MINH",10.7641314,106.6825451,2022-04-29 00:00:00.000
VNVC,VNVC MỸ THO 2,"TẦNG 3 TRUNG TÂM THƯƠNG MẠI GO, SỐ 545, ĐƯỜNG LÊ VĂN PHẨM, P. 5, TP.MỸ THO, TỈNH TIỀN GIANG",10.3584134,106.3402616,2022-04-29 00:00:00.000
VNVC,VNVC BÀ RỊA,"SỐ 2A NGUYỄN ĐÌNH CHIỂU, KP 1, PHƯỜNG PHƯỚC HIỆP, (TRUNG TÂM THƯƠNG MẠI GO! BÀ RỊA), TP. BÀ RỊA, BÀ RỊA–VŨNG TÀU",10.49195744,107.1697019,2022-04-03 00:00:00.000
VNVC,VNVC LONG BÌNH TÂN,"TẦNG TRỆT TTTM BIG C ĐỒNG NAI, SỐ 833 ĐƯỜNG XA LỘ HÀ NỘI, KHU PHỐ 1- PHƯỜNG LONG BÌNH TÂN, BIÊN HÒA, ĐỒNG NAI",10.9056093,106.8504338,2022-03-14 00:00:00.000
VNVC,VNVC HOÀNG MAI,"KHỐI 5, PHƯỜNG QUỲNH THIỆN, THỊ XÃ HOÀNG MAI, NGHỆ AN ",19.2648424,105.7156277,2022-01-26 00:00:00.000
VNVC,VNVC TÂY NINH,"LẦU 1, TTC PLAZA, 217-219 ĐƯỜNG 30/4, PHƯỜNG 2, THÀNH PHỐ TÂY NINH, TỈNH TÂY NINH",11.3126041,106.0958369,2022-01-15 00:00:00.000
VNVC,VNVC ĐỨC TRỌNG,"T3-02 TẦNG 3, TTTM VÀ DV TÀI CHÍNH SACOMBANK (TTC PLAZA ĐỨC TRỌNG) - SỐ 713 QL 20 - THỊ TRẤN LIÊN NGHĨA - HUYỆN ĐỨC TRỌNG - LÂM ĐỒNG",11.744992,108.3756025,2021-07-31 00:00:00.000
VNVC,VNVC BÌNH PHƯỚC,"SỐ 1109 ĐƯỜNG PHÚ RIỀNG ĐỎ, PHƯỜNG TÂN BÌNH, THÀNH PHỐ ĐỒNG XOÀI, TỈNH BÌNH PHƯỚC (ĐỐI DIỆN SIÊU THỊ ĐIỆN MÁY XANH)",11.5359301,106.9012201,2021-06-12 00:00:00.000
VNVC,VNVC CÀ MAU,"138 NGÔ QUYỀN, PHƯỜNG 9, THÀNH PHỐ CÀ MAU, TỈNH CÀ MAU",9.1832191,105.1413732,2021-06-08 00:00:00.000
VNVC,VNVC YÊN BÁI,"SỐ 34, ĐƯỜNG NGUYỄN VĂN CỪ, PHƯỜNG ĐỒNG TÂM, YÊN BÁI (CÁCH 100M VỚI ĐƯỜNG ĐIỆN BIÊN, TUYẾN ĐƯỜNG CHÍNH CỦA TP. YÊN BÁI)",21.7209381,104.917843,2021-06-06 00:00:00.000
VNVC,VNVC ĐỒNG HỚI,"TẦNG 1 (TẦNG TRỆT) TRUNG TÂM MUA SẮM HIẾU HẰNG, SỐ 58A, ĐƯỜNG NGUYỄN HỮU CẢNH, P. ĐỒNG HẢI, TP. ĐỒNG HỚI. TỈNH QUẢNG BÌNH",17.4630543,106.6210412,2021-05-15 00:00:00.000
VNVC,VNVC VĨNH LONG,"SỐ 170/2 PHẠM HÙNG, PHƯỜNG 09, THÀNH PHỐ VĨNH LONG, TỈNH VĨNH LONG",10.2584742,105.9522961,2021-05-11 00:00:00.000
VNVC,VNVC BẾN TRE,"LẦU 1, TRUNG TÂM THƯƠNG MẠI GO! BẾN TRE, ẤP 01, ĐƯỜNG VÕ NGUYÊN GIÁP, XÃ SƠN ĐÔNG, TP.BẾN TRE, TỈNH BẾN TRE",10.2476396,106.3550274,2021-05-09 00:00:00.000
VNVC,VNVC TÂN PHÚ,"TẦNG 1, TOÀ NHÀ ORIENTAL PLAZA, 685 ÂU CƠ, P.TÂN THÀNH, Q.TÂN PHÚ, TP.HCM (NGAY TOP MARKET)",10.7897533,106.6355237,2021-04-14 00:00:00.000
VNVC,VNVC LONG BIÊN,"SỐ 69A1, ĐƯỜNG HOÀNG NHƯ TIẾP, P.BỒ ĐỀ, Q.LONG BIÊN, TP.HÀ NỘI",21.0418126,105.8769098,2021-02-03 00:00:00.000
VNVC,VNVC LONG THÀNH,"115B LÊ DUẨN, KHU PHƯỚC HẢI, THỊ TRẤN LONG THÀNH, HUYỆN LONG THÀNH, TỈNH ĐỒNG NAI",10.792696,106.9465947,2021-01-28 00:00:00.000
VNVC,VNVC HÀ TĨNH,"158 TRẦN PHÚ, P.NGUYỄN DU, TP.HÀ TĨNH, TỈNH HÀ TĨNH",18.34664919,105.8861373,2021-01-27 00:00:00.000
VNVC,VNVC HẢI PHÒNG,"SỐ 11, LÔ 30A, KHU ĐÔ THỊ MỚI NGÃ 5 SÂN BAY CÁT BI, ĐƯỜNG LÊ HỒNG PHONG, P.ĐÔNG KHÊ, Q.NGÔ QUYỀN, TP.HẢI PHÒNG (CẠNH TÒA NHÀ NGÂN HÀNG BIDV, ĐỐI DIỆN KHO BẠC NHÀ NƯỚC, KHOẢNG 200M)",20.85840389,106.6954723,2021-01-10 00:00:00.000
VNVC,VNVC BÌNH THẠNH,"L1-07,08 TẦNG 01 KHỐI A&C CAO ỐC CHUNG CƯ RICHMOND CITY, SỐ 207C NGUYỄN XÍ, P.26, Q.BÌNH THẠNH, TP.HCM (GẦN CẦU ĐỎ)",10.8165845,106.7056605,2021-01-07 00:00:00.000
VNVC,VNVC QUẬN 7,"THE ANTONIA - 89 NGUYỄN LƯƠNG BẰNG , P.TÂN PHÚ , Q.7 , TP.HCM",10.7286987,106.7214935,2020-12-22 00:00:00.000
VNVC,VNVC HƯNG YÊN,"SỐ 601 NGUYỄN VĂN LINH, P.AN TẢO, TP.HƯNG YÊN, TỈNH HƯNG YÊN (NẰM TRÊN TRỤC ĐƯỜNG CHÍNH CỦA THÀNH PHỐ, CÁCH NGÃ TƯ CHỢ GẠO 500M, CÁCH QUẢNG TRƯỜNG TRUNG TÂM THÀNH PHỐ 2KM)",20.670174,106.0590913,2020-12-05 00:00:00.000
VNVC,VNVC QUY NHƠN,"07 LÊ DUẨN, PHƯỜNG TRẦN PHÚ, THÀNH PHỐ QUY NHƠN, TỈNH BÌNH ĐỊNH",13.7656304,109.2217553,2020-11-25 00:00:00.000
VNVC,VNVC LONG KHÁNH,"SỐ 93-95 NGUYỄN THỊ MINH KHAI, KP6, P.XUÂN AN, TP.LONG KHÁNH, TỈNH ĐỒNG NAI",10.92790799,107.2485883,2020-11-17 00:00:00.000
VNVC,VNVC SƠN TÂY,"SỐ 1 LA THÀNH, P.PHÚ THỊNH, THỊ XÃ SƠN TÂY, TP.HÀ NỘI (NẰM TRONG KHU CÔNG NGHIỆP PHÚ THỊNH, PHÍA TRƯỚC LÀ QUỐC LỘ 32C)",21.1471225,105.5010666,2020-11-06 00:00:00.000
VNVC,VNVC TAM KỲ,"SỐ 01 TRẦN QUÝ CÁP, P.TÂN THẠNH, TP.TAM KỲ, TỈNH QUẢNG NAM",15.5799326,108.4731368,2020-10-06 00:00:00.000
VNVC,VNVC QUẢNG NGÃI,"11 MAI ĐÌNH DÕNG, P.NGHĨA CHÁNH, TP.QUẢNG NGÃI, TỈNH QUẢNG NGÃI",15.1127525,108.8111364,2020-08-28 00:00:00.000
VNVC,VNVC NGUYỄN THÁI HỌC,"TẦNG B1 TÒA NHÀ DOJI TOWER, 05 LÊ DUẨN, P.ĐIỆN BIÊN, Q.BA ĐÌNH, TP.HÀ NỘI (CÁCH 15M TỪ TÒA NHÀ DOJI, MẶT ĐƯỜNG NGUYỄN THÁI HỌC GẦN PHỐ ĐÌNH NGANG)",21.0288487,105.8420475,2020-08-28 00:00:00.000
VNVC,VNVC THÀNH PHỐ HUẾ,"56 NGÔ QUYỀN, PHƯỜNG VĨNH NINH, QUẬN THUẬN HÓA, THÀNH PHỐ HUẾ (SÁT NGAY CẠNH BÊN TRUNG TÂM TRUYỀN HÌNH VIỆT NAM TẠI HUẾ - VTV8)",16.463034,107.5902484,2020-07-28 00:00:00.000
VNVC,VNVC VŨNG TÀU,"149 VÕ THỊ SÁU, PHƯỜNG 2, THÀNH PHỐ VŨNG TÀU",10.3374644,107.0861525,2020-07-28 00:00:00.000
VNVC,VNVC BÌNH TÂN,"SỐ 179 VÀNH ĐAI TRONG, P.BÌNH TRỊ ĐÔNG B, Q.BÌNH TÂN, TP.HCM",10.7468921,106.6150116,2020-07-17 00:00:00.000
VNVC,VNVC BUÔN MA THUỘT,"SỐ 07 CHU VĂN AN, P.TÂN AN, TP.BUÔN MA THUỘT, TỈNH ĐẮK LẮK (KHÁCH SẠN MƯỜNG THANH)",12.6942253,108.0629897,2020-07-15 00:00:00.000
VNVC,VNVC BẮC GIANG,"TẦNG 1 - SỐ 1B ĐƯỜNG HÙNG VƯƠNG, PHƯỜNG HOÀNG VĂN THỤ, TP. BẮC GIANG (KHU VUI CHƠI SUN CITY CŨ, CẠNH NGÂN HÀNG SHB VÀ ĐIỆN MÁY VĂN CHIẾN)",21.2790206,106.201932,2020-07-04 00:00:00.000
VNVC,VNVC ĐÔNG ANH,"THÔN ĐẢN MỖ, XÃ UY NỖ, HUYỆN ĐÔNG ANH, TP.HÀ NỘI (CÁCH ĐƯỜNG CAO LỖ, TUYẾN ĐƯỜNG TRỤC TRUNG TÂM HUYỆN KHOẢNG 500M)",21.14973956,105.8442969,2020-06-27 00:00:00.000
VNVC,VNVC MỸ ĐÌNH,"TẦNG 2- THÁP R1 TÒA NHÀ FLORENCE, SỐ 28 ĐƯỜNG TRẦN HỮU DỰC, P.CẦU DIỄN, Q.NAM TỪ LIÊM, TP.HÀ NỘI (NẰM TRÊN MẶT ĐƯỜNG TRẦN HỮU DỰC THUỘC TÒA NHÀ FLORENCE, ĐỐI DIỆN CÁCH CUNG THỂ THAO MỸ ĐÌNH 750 M)",21.0304922,105.761387,2020-06-18 00:00:00.000
VNVC,VNVC DĨ AN,"CHARM PLAZA, 30 DT743C, KHU PHỐ THỐNG NHẤT, P.DĨ AN, TP.DĨ AN, TỈNH BÌNH DƯƠNG",10.9085567,106.7424723,2020-06-16 00:00:00.000
VNVC,VNVC THỦ ĐỨC,"TẦNG 2, CAO ỐC CHUNG CƯ MOONLIGHT RESIDENCES, SỐ 102 ĐẶNG VĂN BI, P.BÌNH THỌ, Q.THỦ ĐỨC, TP.HCM",10.84431536,106.7600389,2020-06-10 00:00:00.000
VNVC,VNVC TRUNG SƠN BÌNH CHÁNH,"TẦNG 2, CAO ỐC CHUNG CƯ SAIGON MIA, SỐ 9A CHUNG CƯ CỤM III,IV - KHU DÂN CƯ TRUNG SƠN, XÃ BÌNH HƯNG, HUYỆN BÌNH CHÁNH, TP.HCM",10.7331,106.6892126,2020-05-31 00:00:00.000
VNVC,VNVC NINH BÌNH,"SỐ 2, ĐƯỜNG TÔN ĐỨC THẮNG, P.ĐÔNG THÀNH, TP.NINH BÌNH, TỈNH NINH BÌNH",20.2651142,105.9773308,2020-05-30 00:00:00.000
VNVC,VNVC TÂN AN LONG AN,"SỐ 126 HÙNG VƯƠNG (NỐI DÀI), P.6, TP.TÂN AN, TỈNH LONG AN (CẠNH TRUNG TÂM THƯƠNG MẠI VIỆT ẤN)",10.5457996,106.4012407,2020-05-14 00:00:00.000
VNVC,VNVC VĨNH YÊN,"SỐ 777 NGUYỄN TẤT THÀNH, P.TÍCH SƠN, TP.VĨNH YÊN, TỈNH VĨNH PHÚC (NẰM TRÊN TRỤC ĐƯỜNG NGUYỄN TẤT THÀNH, PHƯỜNG TÍCH SƠN, THÀNH PHỐ VĨNH YÊN, TỈNH VĨNH PHÚC, CÁCH NGÃ TƯ T50 KHOẢNG 400M)",21.30919914,105.5816447,2020-05-14 00:00:00.000
VNVC,VNVC THÁI NGUYÊN,"SỐ 38, ĐƯỜNG MINH CẦU, P.HOÀNG VĂN THỤ, TP.THÁI NGUYÊN, TỈNH THÁI NGUYÊN",21.5939962,105.8328335,2020-05-07 00:00:00.000
VNVC,VNVC QUẬN 12,"SỐ 8 ĐƯỜNG TRUNG MỸ TÂY 2A, KP5, P.TRUNG MỸ TÂY, Q.12, TP.HCM",10.84763514,106.614168,2020-04-24 00:00:00.000
VNVC,VNVC BẮC NINH,"SỐ 458 NGUYỄN VĂN CỪ, P.VÕ CƯỜNG, TP.BẮC NINH, TỈNH BẮC NINH (MẶT ĐƯỜNG NGUYỄN VĂN CỪ, ĐỐI DIỆN PHÒNG CẢNH SÁT GIAO THÔNG TỈNH BẮC NINH, CÁCH VÒNG XUYẾN NGUYỄN VĂN CỪ 250M)",21.1666304,106.0448109,2020-04-24 00:00:00.000
VNVC,VNVC LONG XUYÊN,"SỐ 1/22 TRẦN HƯNG ĐẠO, P.MỸ THỚI, TP.LONG XUYÊN, TỈNH AN GIANG (ĐỐI DIỆN CÔNG VIÊN MỸ THỚI)",10.35499751,105.4559597,2020-03-27 00:00:00.000
VNVC,VNVC MỸ THO,"SỐ 290-292 ĐƯỜNG HÙNG VƯƠNG, XÃ ĐẠO THẠNH, TP.MỸ THO, TỈNH TIỀN GIANG",10.36679419,106.3626498,2020-03-21 00:00:00.000
VNVC,VNVC RẠCH GIÁ,"LÔ P1 - SỐ 17,18 ĐƯỜNG 3/2, KHU ĐÔ THỊ MỚI PHÚ CƯỜNG, P.AN HÒA, TP.RẠCH GIÁ, TỈNH KIÊN GIANG",9.9745041,105.0955356,2020-03-17 00:00:00.000
VNVC,VNVC NAM ĐỊNH,"SỐ 124, ĐƯỜNG ĐÔNG A, KHU ĐÔ THỊ MỚI HOÀ VƯỢNG, PHƯỜNG LỘC VƯỢNG, TP. NAM ĐỊNH, TỈNH NAM ĐỊNH (NẰM TRONG KHU ĐÔ THỊ HÒA VƯỢNG, CÁCH BỆNH VIỆN ĐA KHOA SÀI GÒN 200M, CÁCH VÒNG XUYẾN BIGC (TTTM GO!) 100M)",20.43747746,106.155198,2020-01-15 00:00:00.000
VNVC,VNVC CẦN THƠ,"SỐ 576 ĐƯỜNG 30/4, P.HƯNG LỢI, Q.NINH KIỀU, TP.CẦN THƠ",10.01598805,105.7639099,2019-11-26 00:00:00.000
VNVC,VNVC PHÚ THỌ,"LÔ CC17, QUẢNG TRƯỜNG HÙNG VƯƠNG, P.GIA CẨM, TP.VIỆT TRÌ, TỈNH PHÚ THỌ (SÁT QUẢNG TRƯỜNG HÙNG VƯƠNG THÀNH PHỐ VIỆT TRÌ, TRONG TÒA NHÀ KHÁCH SẠN MƯỜNG THANH: CÁCH 20M)",21.3144016,105.3923339,2019-10-08 00:00:00.000
VNVC,VNVC THANH HÓA,"SỐ 8A BÙI KHẮC NHẤT, KHU DÂN CƯ AN PHÚ HƯNG, P.ĐÔNG HƯƠNG, TP.THANH HÓA, TỈNH THANH HÓA(PHÍA SAU TÒA NHÀ VIETTEL)",19.8040723,105.79141,2019-07-11 00:00:00.000
VNVC,VNVC HẠ LONG,"TẦNG 1, CHUNG CƯ LIDECO HẠ LONG, ĐƯỜNG TRẦN HƯNG ĐẠO, P.TRẦN HƯNG ĐẠO, TP.HẠ LONG, TỈNH QUẢNG NINH (MẶT ĐƯỜNG TRẦN HƯNG ĐẠO, ĐỐI DIỆN TRƯỜNG TIỂU HỌC TRẦN HƯNG ĐẠO, GẦN CHỢ HẠ LONG 2 CÁCH NGÃ TƯ LOONG TOÒNG 450M)",20.9554557,107.0851516,2019-06-06 00:00:00.000
VNVC,VNVC ĐÀ NẴNG,"LÔ 02-A4.3, LÔ 03-A4.3, KHU ĐẤT CÔNG VIÊN BẮC TƯỢNG ĐÀI, P.HÒA CƯỜNG BẮC, Q.HẢI CHÂU, TP.ĐÀ NẴNG (ĐẦU ĐƯỜNG VÀO ĐẢO XANH, CHÂN CẦU TRẦN THỊ LÝ)",16.0487085,108.2253732,2019-05-15 00:00:00.000
VNVC,VNVC THÀNH PHỐ VINH,"SỐ 17B MAI HẮC ĐẾ, P.QUÁN BÀU, TP.VINH, TỈNH NGHỆ AN",18.69579004,105.6736992,2019-05-04 00:00:00.000
VNVC,VNVC HÀ ĐÔNG,"TẦNG 3, TÒA NHÀ NEWSKYLINE, LÔ CC2 KHU ĐÔ THỊ MỚI VĂN QUÁN - YÊN PHÚC, Q.HÀ ĐÔNG, TP.HÀ NỘI",20.9763774,105.7894287,2019-04-16 00:00:00.000
VNVC,VNVC LÊ ĐẠI HÀNH,"LẦU 1, TRUNG TÂM THƯƠNG MẠI FLEMINGTON, CAO ỐC BẢO GIA, 184 LÊ ĐẠI HÀNH, P.15, Q.11, TP.HCM",10.764909,106.6556152,2018-10-31 00:00:00.000
VNVC,VNVC CÔNG VIÊN THANH LỄ BÌNH DƯƠNG,"SỐ 567 ĐẠI LỘ BÌNH DƯƠNG, P.HIỆP THÀNH, TP.THỦ DẦU MỘT, TỈNH BÌNH DƯƠNG",10.9894531,106.6587547,2018-10-31 00:00:00.000
VNVC,VNVC ĐỒNG NAI,"SỐ 22, ĐƯỜNG ĐOÀN VĂN CỰ, KP9, P.TAM HIỆP, TP.BIÊN HÒA, TỈNH ĐỒNG NAI (CẠNH UBND PHƯỜNG)",10.9470549,106.857499,2018-07-28 00:00:00.000
VNVC,VNVC CANTAVIL AN PHÚ,"LẦU 1, TRUNG TÂM THƯƠNG MẠI CANTAVIL AN PHÚ, SỐ 1 ĐƯỜNG SONG HÀNH, P.AN PHÚ, Q.2, TP.HCM",10.8014528,106.746781,2018-07-28 00:00:00.000
VNVC,VNVC ICON 4 CẦU GIẤY,"TÒA NHÀ ICON 4, SỐ 3 CẦU GIẤY, P.LÁNG THƯỢNG, Q.ĐỐNG ĐA, TP.HÀ NỘI (TÒA NHÀ ICON4 CẦU GIẤY, CẠNH TRƯỜNG ĐẠI HỌC GIAO THÔNG VẬN TẢI, MẶT ĐƯỜNG HUỲNH THÚC KHÁNG KÉO DÀI, GẦN ĐẠI SỨ QUÁN NGA)",21.0279901,105.8044211,2018-06-17 00:00:00.000
VNVC,VNVC HOÀNG VĂN THỤ,"198 HOÀNG VĂN THỤ, P.9, Q.PHÚ NHUẬN, TP.HCM",10.8002471,106.6726532,2017-12-06 00:00:00.000
VNVC,VNVC TRƯỜNG CHINH,"180 TRƯỜNG CHINH, P.KHƯƠNG THƯỢNG, Q.ĐỐNG ĐA, TP.HÀ NỘI (GẦN ĐỐI DIỆN BẢO TÀNG PHÒNG KHÔNG - KHÔNG QUÂN (CÁCH 200M))",21.0002016,105.8320587,2017-06-01 00:00:00.000
